Serial_Number,List_Year,Date_Recorded,Town,Address,Assessed_Value,Sale_Amount,Sales_Ratio,Property_Type,Residential_Type,Non_Use_Code,Assessor_Remarks,OPM_remarks,Location,Latitude,Longitude,exact_loc
210095,2021,1/31/2022,East Windsor,8E PASCO DR,92810,187000,0.496300012,Commercial,,,,,-72.612491724 41.908561138,41.90856114,-72.61249172,"2, Pasco Drive, 06088, Pasco Drive, East Windsor, CT, United States"
21150,2021,1/31/2022,Monroe,163 HIGHLAND DR,130300,259250,0.502600014,Residential,Condo,,CORRECTIVE DEED TO FOLLOW,,-73.194571004 41.363048019,41.36304802,-73.194571,"Highland Drive, 06468, Monroe, United States"
210481,2021,1/31/2022,New Britain,95B-6B CLINIC DR,41440,71000,0.583599985,Residential,Condo,,,,-72.78458404 41.64814299,41.64814299,-72.78458404,"93, Clinic Drive, 06051, Clinic Drive, New Britain, CT, United States"
210718,2021,1/31/2022,Middletown,42 MIDDLEFIELD ST,119120,245000,0.486200005,Residential,Single Family,,,,-72.674026989 41.55079498,41.55079498,-72.67402699,"81, Middlefield Street, 06457, Middlefield Street, Middletown, CT, United States"
210492,2021,1/31/2022,Bristol,129 CAROL DRIVE,84380,165000,0.511300027,Residential,Single Family,,,,-72.911598958 41.691023005,41.69102301,-72.91159896,"129, Carol Drive, 06010, Carol Drive, Bristol, CT, United States"
21201,2021,1/31/2022,Farmington,14 STREAM COURT,154210,280000,0.550700009,Residential,Condo,,,,-72.875744027 41.731196,41.731196,-72.87574403,"Stream Court, 06032, Farmington, United States"
2100114,2021,1/31/2022,East Hampton,41 DAY POINT RD,488680,795000,0.614600003,Residential,Single Family,,,,-72.496623002 41.587541998,41.587542,-72.496623,"41, Day Point Road, 06424, Day Point Road, East Hampton, CT, United States"
210226,2021,1/31/2022,Branford,25 FARM RIVER RD,164300,286000,0.574400008,Residential,Single Family,,,,-72.850478959 41.26076202,41.26076202,-72.85047896,"25, Farm River Road, 06405, Farm River Road, Branford, CT, United States"
210154,2021,1/31/2022,New Canaan,123 HEMLOCK HILL RD,2018170,4025000,0.501399994,Residential,Single Family,,,,-73.515249963 41.162546985,41.16254699,-73.51524996,"123, Hemlock Hill Road, 06840, Hemlock Hill Road, New Canaan, CT, United States"
210224,2021,1/31/2022,Branford,34 NEWTON RD,141200,223000,0.633099973,Residential,Single Family,,,,-72.799342979 41.265205015,41.26520502,-72.79934298,"34, Newton Road, 06405, Newton Road, Branford, CT, United States"
21000178,2021,1/31/2022,Cheshire,1022 SUMMIT RD,201130,199500,1.008100033,Residential,Single Family,08 - Part Interest,1/2 INTEREST,,-72.95595599 41.531345989,41.53134599,-72.95595599,"1022, Summit Road, 06410, Summit Road, Cheshire, CT, United States"
210862,2021,1/31/2022,Bridgeport,355 RUTH ST,134860,225000,0.599377751,Residential,Single Family,25 - Other,,SHORT SALE PER MLS,-73.217419988 41.20903302,41.20903302,-73.21741999,"355, Ruth Street, 06606, Ruth Street, Bridgeport, CT, United States"
2121120,2021,1/31/2022,Ansonia,175 DIVISION ST,133100,357000,0.372799993,Residential,Two Family,,,,-73.089420029 41.337692007,41.33769201,-73.08942003,"175, Division Street, 06401, Division Street, Ansonia, CT, United States"
210861,2021,1/31/2022,Bridgeport,76 LYON TERRACE,297920,495000,0.601858556,Commercial,,,,,-73.192592959 41.180925021,41.18092502,-73.19259296,"76, Lyon Terrace, 06604, Lyon Terrace, Bridgeport, CT, United States"
210220,2021,1/31/2022,Glastonbury,30 STONY BROOK DR  7A3,68900,142500,0.483500004,Residential,Condo,,,,-72.571134014 41.719449014,41.71944901,-72.57113401,"Hale Farms, Glastonbury, United States"
21183,2021,1/31/2022,Guilford,1231 MOOSE HILL RD,285920,450000,0.635299981,Residential,Single Family,,,,-72.720479999 41.295372993,41.29537299,-72.72048,"1231, Moose Hill Road, 06437, Moose Hill Road, Guilford, CT, United States"
210561,2021,1/31/2022,Danbury,14 HIGHLAND AV,146700,335000,0.437900007,Residential,Single Family,,H13133,,-73.465286025 41.397898002,41.397898,-73.46528603,"14, Highland Avenue, 06810, Highland Avenue, Danbury, CT, United States"
210459,2021,1/24/2022,Bristol,143 GRIDLEY ST,95580,215000,0.444499999,Residential,Two Family,,,,-72.953558011 41.667495003,41.667495,-72.95355801,"143, Gridley Street, 06010, Gridley Street, Bristol, CT, United States"
210093,2021,1/24/2022,Derby,43 PAUGASSETT RD,162330,58000,2.798700094,Residential,Single Family,08 - Part Interest,,,-73.077212038 41.321945009,41.32194501,-73.07721204,"43, Paugassett Road, 06418, Paugassett Road, Derby, CT, United States"
210044,2021,1/24/2022,Bethany,636 AMITY RD,146430,440000,0.332700014,Residential,Single Family,,,,-72.992517014 41.433329983,41.43332998,-72.99251701,"636, Amity Road, 06524, Amity Road, Bethany, CT, United States"
210133,2021,1/24/2022,Cromwell,563A MAIN STREET,128590,245000,0.524800003,Residential,Single Family,,,,-72.654147964 41.62014999,41.62014999,-72.65414796,"563, Main Street, 06416, Main Street, Cromwell, CT, United States"
210459,2021,1/24/2022,New Britain,410-2J FARMINGTON AVE,70140,90000,0.779333353,Residential,Condo,25 - Other,,BELOW MARKET SALE COMPARED TO COMPLEX - RESOLD WITH NO RENOVATIONS #210628,-72.785968393 41.678366342,41.67836634,-72.78596839,"8, Farmington Avenue, 06051, Farmington Avenue, New Britain, CT, United States"
210130,2021,1/24/2022,Avon,47 JACKSON STREET,181880,305000,0.596300006,Residential,Single Family,,,,-72.841544018 41.799886996,41.799887,-72.84154402,"47, Jackson Street, 06001, Jackson Street, Avon, CT, United States"
21222,2021,1/24/2022,Newtown,14-17 PINE STREET,154750,270000,0.573099971,Residential,Single Family,25 - Other,MULTI PARCELS,,-73.273554013 41.432087995,41.432088,-73.27355401,"17, Pine Street, 06482, Pine Street, Newtown, CT, United States"
210272,2021,1/24/2022,Wallingford,6 COMPASS ROCK LN,267100,504900,0.528999984,Residential,Single Family,,,,-72.841898991 41.506241016,41.50624102,-72.84189899,"6, Compass Rock Lane, 06492, Compass Rock Lane, Wallingford, CT, United States"
2100405,2021,1/24/2022,Stratford,635 SECOND HILL LANE,216160,430000,0.502600014,Residential,Single Family,,,,-73.155723984 41.214461015,41.21446102,-73.15572398,"635, Second Hill Lane, 06614, Second Hill Lane, Stratford, CT, United States"
210086,2021,1/24/2022,Tolland,175 HARTFORD TPKE,146200,155000,0.943199992,Commercial,,03 - Inter Corporation,,,-72.419270022 41.865125989,41.86512599,-72.41927002,"175, Tolland Meadows, 06084, Tolland Meadows, Tolland, CT, United States"
21131,2021,1/24/2022,Plainfield,35 JOLLEY RD,102340,238000,0.430000007,Residential,Single Family,,,,-71.903620033 41.758947015,41.75894702,-71.90362003,"35, Jolley Road, 06374, Jolley Road, Plainfield, CT, United States"
210568,2021,1/24/2022,Southington,150-2C BURRITT ST,97650,147000,0.664285719,Residential,Condo,,,,-72.904915983 41.568159015,41.56815902,-72.90491598,"2L, Elliott Drive, 06479, Elliott Drive, Southington, CT, United States"
210801,2021,1/24/2022,Waterbury,73 MOHAWK ST,120850,318877,0.378986269,Residential,Three Family,25 - Other,BULK SALE,,-73.021479004 41.535285987,41.53528599,-73.021479,"73, Mohawk Street, 06706, Mohawk Street, Waterbury, CT, United States"
210307,2021,1/24/2022,Norwich,150 YANTIC ST #306,35200,81900,0.429699987,Residential,Single Family,,,,-72.085816754 41.534144059,41.53414406,-72.08581675,"3, Sachem Terrace, 06360, Sachem Terrace, Norwich, CT, United States"
210031,2021,1/24/2022,Washington,46 HINKLE RD,274310,577500,0.474900007,Residential,Single Family,,,,-73.279972036 41.664197017,41.66419702,-73.27997204,"46, Hinkle Road, 06793, Hinkle Road, Washington, CT, United States"
210110,2021,1/24/2022,Suffield,15 DOWNING WAY,145670,265000,0.549600005,Residential,Condo,,,,-72.664052021 41.982151983,41.98215198,-72.66405202,"Downing Way, 06078, Suffield, Connecticut, United States"
21136,2021,1/24/2022,Plainville,9 STREMLAU AVE,122780,195000,0.629599988,Residential,Single Family,,,,-72.85876799 41.659226004,41.659226,-72.85876799,"9, Stremlau Avenue, 06062, Stremlau Avenue, Plainville, CT, United States"
210796,2021,1/24/2022,Waterbury,93 MORELAND AVE,68900,220000,0.31310001,Residential,Single Family,,,,-72.991196026 41.54664401,41.54664401,-72.99119603,"93, Moreland Avenue, 06705, Moreland Avenue, Waterbury, CT, United States"
210188,2021,1/24/2022,New London,100 PEQUOT AVE SLIP 4007,7000,17000,0.411764711,Commercial,,,,,-72.099287013 41.338080005,41.33808001,-72.09928701,"Ferry Slip Dockominiums, 100, Pequot Avenue, 06320, Pequot Avenue, New London, CT, United States"
2100823,2021,1/24/2022,Stamford,25 VAN BUSKIRK AVENUE,233470,515000,0.453299999,Residential,Single Family,,,,-73.518083968 41.048746012,41.04874601,-73.51808397,"25, Van Buskirk Avenue, 06902, Van Buskirk Avenue, Stamford, CT, United States"
21164,2021,1/24/2022,Ridgefield,205 MOUNTAIN RD,420150,779000,0.539300025,Residential,Single Family,07 - Change in Property,,,-73.496025984 41.343051019,41.34305102,-73.49602598,"205, Mountain Road, 06877, Mountain Road, Ridgefield, CT, United States"
210124,2021,1/24/2022,Seymour,31 WEST ST,101710,184000,0.552699983,Residential,Single Family,,,,-73.077693997 41.393186995,41.393187,-73.077694,"31, West Street, 06483, West Street, Seymour, CT, United States"
210212,2021,1/24/2022,South Windsor,804 TWIN CIRCLE DR,59600,110000,0.541800022,Residential,Condo,,,,-72.578803707 41.822606689,41.82260669,-72.57880371,"804, Twin Circle Drive, 06074, Twin Circle Drive, South Windsor, CT, United States"
210428,2021,1/24/2022,New Haven,102 WHEELER ST,2134965,6431100,0.331900001,Industrial,,,,,-72.898679009 41.298843981,41.29884398,-72.89867901,"100, Wheeler Street, 06513, Wheeler Street, New Haven, CT, United States"
210591,2021,1/24/2022,Norwalk,71 AIKEN ST UNIT A13,130550,245000,0.532800019,Residential,Condo,,5-21-382-A/13,,-73.420586006 41.136430987,41.13643099,-73.42058601,"71, Aiken Street, 06851, Aiken Street, Norwalk, CT, United States"
213361,2021,1/24/2022,North Haven,43 WAYLAND ST,95200,75000,1.269299984,Vacant Land,,,,,-72.903867994 41.373272013,41.37327201,-72.90386799,"45, Wayland Street, 06473, Wayland Street, North Haven, CT, United States"
210193,2021,1/24/2022,New London,63 HEMPSTEAD ST,49630,59000,0.841099977,Residential,Single Family,14 - Foreclosure,,,-72.103438988 41.354245009,41.35424501,-72.10343899,"63, Hempstead Street, 06320, Hempstead Street, New London, CT, United States"
2100404,2021,1/24/2022,Stratford,63B CHEYENNE LANE,122360,295000,0.414700001,Residential,Condo,,,,-73.107462997 41.246954008,41.24695401,-73.107463,"Ottowa Lane, 06461, Stratford, Connecticut, United States"
210033,2021,1/24/2022,Sterling,101 GIBSON HILL RD,261810,565000,0.46329999,Residential,Single Family,,LOG BUILDING BUILT 2011 ON 8.03 ACRES,,-71.797965975 41.704920997,41.704921,-71.79796598,"101, Gibson Hill Road, 06377, Gibson Hill Road, Sterling, CT, United States"
210348,2021,1/24/2022,Torrington,D26 SURREY LN,38760,120000,0.323000014,Residential,Condo,,,,-73.11956504 41.823621989,41.82362199,-73.11956504,"Surrey Lane, 06790, Torrington, Connecticut, United States"
21039,2021,1/24/2022,North Stonington,116 NRWH WSTLY RD,544670,1515000,0.359499991,Commercial,,,,,-71.90452 41.45301,41.45301,-71.90452,"452, Norwich Westerly Road, 06359, Norwich Westerly Road, North Stonington, CT, United States"
210430,2021,1/24/2022,New Haven,533 QUINNIPIAC AV,116060,192000,0.604399979,Residential,Two Family,,,,-72.887832994 41.304756995,41.304757,-72.88783299,"533, Quinnipiac Avenue, 06513, Quinnipiac Avenue, New Haven, CT, United States"
210073,2021,1/24/2022,North Branford,69 WOODS HILL RD,370200,685000,0.540400028,Residential,Single Family,,,,-72.772440004 41.414404987,41.41440499,-72.77244,"69, Woods Hill Road, 06472, Woods Hill Road, North Branford, CT, United States"
210139,2021,1/31/2022,Killingly,59 BROAD ST,111860,187500,0.596586645,Residential,Three Family,,,,-71.880553035 41.799574016,41.79957402,-71.88055304,"59, Broad Street, 06239, Broad Street, Killingly, CT, United States"
210497,2021,1/31/2022,Bristol,367 VILLAGE STREET,258230,475000,0.543600023,Residential,Single Family,,,,-72.888513018 41.649211013,41.64921101,-72.88851302,"367, Village Street, 06010, Village Street, Bristol, CT, United States"
21204,2021,1/31/2022,Farmington,36 WESTVIEW TERR,219640,461000,0.476399988,Residential,Single Family,,,,-72.877992975 41.743636002,41.743636,-72.87799298,"36, Westview Terrace, 06085, Westview Terrace, Farmington, CT, United States"
21000080,2021,1/31/2022,Granby,33 MOOSE HORN RD,168630,220000,0.766499996,Vacant Land,,,,,-72.892665986 41.986622005,41.98662201,-72.89266599,"Moosehorn Road, 06027, Hartland, United States"
21037,2021,1/31/2022,Deep River,12 BELMONT AVE,147770,40000,3.694200039,Residential,Single Family,01 - Family,,,-72.431325965 41.379163988,41.37916399,-72.43132597,"12, Belmont Avenue, 06417, Belmont Avenue, Deep River, CT, United States"
210128,2021,1/31/2022,Berlin,1035 WORTHINGTON RDG,346600,409900,0.845572114,Residential,Single Family,,,,-72.746732036 41.615091009,41.61509101,-72.74673204,"1033, Worthington Ridge, 06037, Worthington Ridge, Berlin, CT, United States"
210568,2021,1/31/2022,Danbury,28 HUNTINGTON DR,339000,680000,0.49849999,Residential,Single Family,,F05065,,-73.483553963 41.444294016,41.44429402,-73.48355396,"28, Huntington Drive, 06811, Huntington Drive, Danbury, CT, United States"
210563,2021,1/31/2022,Danbury,24 CLEARVIEW AV,139600,420000,0.33238095,Residential,Single Family,07 - Change in Property,RENOVATIONS / K04071,,-73.433429009 41.447072994,41.44707299,-73.43342901,"24, Clearview Avenue, 06811, Clearview Avenue, Danbury, CT, United States"
21147,2021,1/31/2022,Monroe,1 PERCHERON DR,392400,762000,0.514900029,Residential,Single Family,07 - Change in Property,NEW CONSTRUCTION 85% COMPLETE 10-1-21,,-73.222102035 41.362563,41.362563,-73.22210204,"1, Percheron Drive, 06468, Percheron Drive, Monroe, CT, United States"
210017,2021,1/31/2022,Lyme,108 ELY FERRY RD,356105,337500,1.055099964,Residential,Single Family,08 - Part Interest,FULL SALE VALUE $675000 (FAMILY SALE),,-72.418141969 41.420250441,41.42025044,-72.41814197,"107, Ferry Road, 06371, Ferry Road, Lyme, CT, United States"
210366,2021,1/31/2022,Fairfield,253 RIVERSIDE AVENUE,451780,705000,0.640799999,Residential,Single Family,,,,-73.580464954 41.029008371,41.02900837,-73.58046495,"2, Spruce Street, 06878, Spruce Street, Greenwich, CT, United States"
210566,2021,1/31/2022,Danbury,14 SOUTH ST 4,144000,300000,0.479999989,Residential,Condo,,K16126-4,,-73.427217013 41.382796998,41.382797,-73.42721701,"14, Mannion Lane, 06810, Mannion Lane, Danbury, CT, United States"
2100128,2021,1/31/2022,Madison,RACE HILL RD MBLU 139-22,13000,130000,0.100000001,Vacant Land,,28 - Use Assessment,sale of land classified as  pa 490 open space,,-72.666316155 41.361932582,41.36193258,-72.66631616,"Race Hill Road, 06437, Madison, Connecticut, United States"
210115,2021,1/31/2022,East Hampton,36 VIOLA DR,264400,500000,0.528800011,Residential,Single Family,,,,-72.487107028 41.578018983,41.57801898,-72.48710703,"36, Viola Drive, 06424, Viola Drive, East Hampton, CT, United States"
210574,2021,1/31/2022,Danbury,79 BRENTWOOD CI,285200,639995,0.445600003,Residential,Condo,,B16001-57,,-73.524607416 41.384614019,41.38461402,-73.52460742,"Brentwood Circle, 96810, Danbury, Connecticut, United States"
210101,2021,1/31/2022,Derby,7F MAPLEWOOD CONDOS,109830,195000,0.563199997,Residential,Condo,,,,-73.089654588 41.332626576,41.33262658,-73.08965459,"11, Maple Avenue, 06418, Maple Avenue, Derby, CT, United States"
2100820,2021,1/24/2022,Stamford,596 GLENBROOK ROAD #19,314700,530000,0.593699992,Residential,Condo,,EXECUTOR'S DEED,,-73.518732979 41.073010993,41.07301099,-73.51873298,"589, Glenbrook Road, 06906, Glenbrook Road, Stamford, CT, United States"
21223,2021,1/24/2022,Newtown,11 DEER HILL DRIVE,194200,890750,0.218018517,Residential,Single Family,07 - Change in Property,CONSTRUCTION NOT COMPLETE,,-73.27609501 41.448622306,41.44862231,-73.27609501,"Shady Rest Boulevard, 06482, Newtown, Connecticut, United States"
210431,2021,1/24/2022,New Haven,264 NEWHALL ST,331062,575000,0.575699985,Apartments,,,,,-72.928171993 41.330935984,41.33093598,-72.92817199,"266, Newhall Street, 06511, Newhall Street, New Haven, CT, United States"
210305,2021,1/24/2022,Norwich,55 SHERMAN ST,60800,170000,0.357600003,Residential,Single Family,,,,-72.09155697 41.53559398,41.53559398,-72.09155697,"55, Sherman Street, 06360, Sherman Street, Norwich, CT, United States"
210061,2021,1/24/2022,Somers,127 COLTON RD,222100,340000,0.653199971,Residential,Single Family,,,,-72.460810986 41.986049987,41.98604999,-72.46081099,"127, Colton Road, 06071, Colton Road, Somers, CT, United States"
2100065,2021,1/24/2022,Prospect,22 NANCY MAE AVE,168450,315000,0.534699976,Residential,Single Family,,,,-72.957160973 41.495645997,41.495646,-72.95716097,"22, Nancy Mae Avenue, 06712, Nancy Mae Avenue, Prospect, CT, United States"
21169,2021,1/24/2022,Southbury,131 PEPPER TREE HILL LANE,208070,380500,0.546800017,Residential,Single Family,,,,-73.196746024 41.480162987,41.48016299,-73.19674602,"131, Pepper Tree Hill Lane, 06488, Pepper Tree Hill Lane, Southbury, CT, United States"
210567,2021,1/24/2022,Southington,1199 WOODRUFF ST,352230,425000,0.828776479,Residential,Single Family,,,,-72.835997964 41.604048019,41.60404802,-72.83599796,"1199, Woodruff Street, 06489, Woodruff Street, Southington, CT, United States"
210193,2021,1/24/2022,Newington,61 DEEPWOOD DR,145820,322000,0.452800006,Residential,Single Family,,,,-72.717036965 41.704328983,41.70432898,-72.71703697,"61, Deepwood Drive, 06111, Deepwood Drive, Newington, CT, United States"
2119858,2021,1/24/2022,Redding,73 STEPNEY RD,392300,750000,0.523000002,Residential,Single Family,07 - Change in Property,FLIP,,-73.321088959 41.311570979,41.31157098,-73.32108896,"73, Stepney Road, 06896, Stepney Road, Redding, CT, United States"
210194,2021,1/24/2022,New London,72 MOUNTAIN AVE,74550,65000,1.146900058,Residential,Two Family,16 - Charitable Group,,,-72.104539029 41.354707019,41.35470702,-72.10453903,"72, Mountain Avenue, 06320, Mountain Avenue, New London, CT, United States"
210186,2021,1/24/2022,New London,29 BRAINARD ST,227430,329000,0.691200018,Commercial,,16 - Charitable Group,BOARDING/ROOMING HOUSE,,-72.102833983 41.357267984,41.35726798,-72.10283398,"29, Brainard Street, 06320, Brainard Street, New London, CT, United States"
210271,2021,1/24/2022,Wallingford,1268 OLD COLONY RD,273200,477500,0.572099984,Commercial,,,,,-72.815945015 41.508396003,41.508396,-72.81594502,"1268, Old Colony Road, 06492, Old Colony Road, Meriden, CT, United States"
210209,2021,1/24/2022,South Windsor,205 HILTON DR,143500,310000,0.462900013,Residential,Single Family,,,,-72.594131107 41.819842505,41.81984251,-72.59413111,"205, Hilton Drive, 06074, Hilton Drive, South Windsor, CT, United States"
21135,2021,1/24/2022,Plainville,492 EAST ST C30,54460,82500,0.660099983,Residential,Condo,,,,-72.869714002 41.650974984,41.65097498,-72.869714,"492, East Street, 06062, East Street, Plainville, CT, United States"
21130,2021,1/24/2022,Plainfield,57 SALISBURY AVE,91020,217000,0.419400007,Residential,Single Family,,,,-71.88738504 41.715056981,41.71505698,-71.88738504,"57, Salisbury Avenue, 06354, Salisbury Avenue, Plainfield, CT, United States"
210094,2021,1/31/2022,East Windsor,5 ALLEN DR,166430,393000,0.423400015,Residential,Single Family,,,,-72.569986029 41.893819003,41.893819,-72.56998603,"5, Allen Drive, 06016, Allen Drive, East Windsor, CT, United States"
21039,2021,1/31/2022,Deep River,6 WESTBROOK RD,218610,106250,2.057499886,Vacant Land,,06 - Portion of Property,,,-72.489289005 41.361251986,41.36125199,-72.48928901,"6, Westbrook Road, 06417, Westbrook Road, Deep River, CT, United States"
210030,2021,1/31/2022,Middlefield,286 JACKSON HILL RD,198200,287000,0.690500021,Residential,Single Family,01 - Family,,,-72.71257402 41.525786985,41.52578699,-72.71257402,"286, Jackson Hill Road, 06455, Jackson Hill Road, Middlefield, CT, United States"
210863,2021,1/31/2022,Bridgeport,950 STATE ST,341210,525000,0.649900019,Residential,Four Family,,,,-73.202443036 41.17280698,41.17280698,-73.20244304,"950, State Street, 06605, State Street, Bridgeport, CT, United States"
21041,2021,1/31/2022,Durham,90 CAMERA RD,150500,289000,0.520699978,Residential,Single Family,,,,-72.731449982 41.426989996,41.42699,-72.73144998,"90, Camera Road, 06422, Camera Road, Durham, CT, United States"
2100244,2021,1/31/2022,Naugatuck,89 WEID DR,3360000,8429003,0.398600012,Commercial,,,,,-73.034096031 41.467263993,41.46726399,-73.03409603,"89, Weid Drive, 06770, Weid Drive, Naugatuck, CT, United States"
210105,2021,1/31/2022,Mansfield,93 MOULTON RD,115100,110000,1.046300054,Residential,Single Family,25 - Other,NOT ON MLS  - NOT ARMS LENGTH SALE,,-72.256702004 41.825230979,41.82523098,-72.256702,"93, Moulton Road, 06268, Moulton Road, Storrs, CT, United States"
2100239,2021,1/31/2022,Naugatuck,84 JOHNSON ST,87810,220000,0.399100006,Residential,Single Family,,,,-73.045913006 41.491443981,41.49144398,-73.04591301,"84, Johnson Street, 06770, Johnson Street, Naugatuck, CT, United States"
210225,2021,1/31/2022,Branford,144 STONY CREEK RD,206400,430000,0.479999989,Residential,Single Family,,,,-72.762730994 41.282762001,41.282762,-72.76273099,"144, Stony Creek Road, 06405, Stony Creek Road, Branford, CT, United States"
21125,2021,1/31/2022,Darien,93 GARDINER ST,764330,1490000,0.512899995,Residential,Single Family,,,,-73.497289975 41.065834994,41.06583499,-73.49728998,"93, Gardiner Street, 06820, Gardiner Street, Darien, CT, United States"
210073,2021,1/31/2022,Canton,67 BRIDGE STREET,158220,300000,0.527400017,Residential,Two Family,,,,-72.927884996 41.809938993,41.80993899,-72.927885,"67, Bridge Street, 06019, Bridge Street, Canton, CT, United States"
210493,2021,1/31/2022,Bristol,"1469 FARMINGTON AVE., UNIT 80",83580,175000,0.477600008,Residential,Condo,,,,-72.895926979 41.70202002,41.70202002,-72.89592698,"1469, Farmington Avenue, 06010, Farmington Avenue, Bristol, CT, United States"
210419,2021,1/31/2022,Hamden,81 HIDEAWAY LA,196770,300000,0.655900002,Residential,Single Family,,,,-72.944606977 41.418454997,41.418455,-72.94460698,"81, Hideaway Lane, 06518, Hideaway Lane, Hamden, CT, United States"
210480,2021,1/31/2022,New Britain,74 TREMONT ST,88900,195000,0.455799997,Residential,Single Family,,,,-72.778067027 41.675846983,41.67584698,-72.77806703,"74, Tremont Street, 06051, Tremont Street, New Britain, CT, United States"
210094,2021,1/31/2022,Litchfield,35 HIGH BRIDGE RD,216610,495000,0.4375,Residential,Single Family,,,,-73.227435021 41.721439004,41.721439,-73.22743502,"35, High Bridge Road, 06750, High Bridge Road, Litchfield, CT, United States"
21151,2021,1/31/2022,Bethel,82 STONY HILL ROAD,685020,1467900,0.466666669,Commercial,,25 - Other,,2ND SALE WITHIN ONE WEEK - ALSO SEE #21150,-73.377218038 41.414255999,41.414256,-73.37721804,"82, Stony Hill Road, 06801, Stony Hill Road, Bethel, CT, United States"
210188,2021,1/31/2022,Harwinton,65 SOUTH RD,233750,500000,0.467500001,Residential,Single Family,,,,-73.060516963 41.766857017,41.76685702,-73.06051696,"65, South Road, 06791, South Road, Harwinton, CT, United States"
210795,2021,1/24/2022,Waterbury,37 SECOND AVE,40680,130000,0.312923074,Residential,Single Family,25 - Other,PRIVATE SALE,,-73.042565022 41.560978993,41.56097899,-73.04256502,"37, Second Avenue, 06710, Second Avenue, Waterbury, CT, United States"
210269,2021,1/24/2022,Wallingford,57 GREEN ST,152900,265000,0.576900005,Residential,Single Family,,,,-72.82601101 41.442573001,41.442573,-72.82601101,"57, Green Street, 06492, Green Street, Wallingford, CT, United States"
210347,2021,1/24/2022,Torrington,62 PULASKI ST,80380,153000,0.525300026,Residential,Single Family,,,,-73.128151965 41.810821985,41.81082199,-73.12815197,"62, Pulaski Street, 06790, Pulaski Street, Torrington, CT, United States"
210589,2021,1/24/2022,Norwalk,33 PROSPECT AVE UNIT 33P & CLA,103690,215000,0.482199997,Residential,Condo,,1-19-13C-339 (CONDO) & 1-19-13C-G14 (GARAGE UNIT),,-73.421878998 41.114697005,41.11469701,-73.421879,"22, Bedford Avenue, 06850, Bedford Avenue, Norwalk, CT, United States"
210187,2021,1/24/2022,New London,12 RIVERVIEW AVE,87710,103000,0.851499975,Residential,Single Family,07 - Change in Property,IN DISREPAIR,,-72.103289036 41.341320994,41.34132099,-72.10328904,"12, Riverview Avenue, 06320, Riverview Avenue, New London, CT, United States"
210213,2021,1/24/2022,South Windsor,15 MORGAN FARMS DR,799900,1565000,0.511099994,Commercial,,,,,-72.566684565 41.847814006,41.84781401,-72.56668457,"15, Morgan Farms Drive, 06074, Morgan Farms Drive, South Windsor, CT, United States"
210101,2021,1/24/2022,Rocky Hill,527 OLD MAIN STREET,125440,245000,0.512000024,Residential,Single Family,,,,-72.640714959 41.67194001,41.67194001,-72.64071496,"527, Old Main Street, 06067, Old Main Street, Rocky Hill, CT, United States"
210799,2021,1/24/2022,Waterbury,61 CHIPMAN ST,79230,249000,0.318100005,Residential,Single Family,,,,-73.052988003 41.543221009,41.54322101,-73.052988,"65, Chipman Street, 06708, Chipman Street, Waterbury, CT, United States"
2100822,2021,1/24/2022,Stamford,77 HAVEMEYER LANE #38,545440,965000,0.565199971,Residential,Condo,,,,-73.565795018 41.055780985,41.05578099,-73.56579502,"77, Havemeyer Lane, 06902, Havemeyer Lane, Stamford, CT, United States"
210088,2021,1/24/2022,Tolland,80 MARBELLA LANE,186700,354500,0.526600003,Residential,Single Family,,,,-72.344045961 41.849866985,41.84986699,-72.34404596,"80, Marbella Lane, 06084, Marbella Lane, Tolland, CT, United States"
2100817,2021,1/24/2022,Stamford,60 STRAWBERRY HILL AVE #715,82120,140000,0.586499989,Residential,Condo,,,,-73.53338597 41.062373017,41.06237302,-73.53338597,"48, Strawberry Hill Avenue, 06902, Strawberry Hill Avenue, Stamford, CT, United States"
210303,2021,1/24/2022,Norwich,31 BLISS PL,81800,180007,0.454400003,Residential,Two Family,,,,-72.084930992 41.543718014,41.54371801,-72.08493099,"31, Bliss Place, 06360, Bliss Place, Norwich, CT, United States"
210122,2021,1/24/2022,Seymour,28 STODDARD ST,125860,220000,0.572000027,Residential,Single Family,,,,-73.065018967 41.39249398,41.39249398,-73.06501897,"28, Stoddard Street, 06483, Stoddard Street, Seymour, CT, United States"
210191,2021,1/24/2022,New London,80 MORGAN ST,101150,270126,0.37439999,Residential,Single Family,,,,-72.118289039 41.367171999,41.367172,-72.11828904,"80, Morgan Street, 06320, Morgan Street, New London, CT, United States"
210613,2021,1/24/2022,Sprague,36-38 RIVER ST,171720,294900,0.582199991,Residential,Single Family,24 - Plottage,2 LOTS - SINGLE FAM & 2 FAM - SOLD IN PACKAGE DEAL - ASMTS COMBINED FOR RATIO,,-72.080507023 41.616244987,41.61624499,-72.08050702,"40, River Street, 06330, River Street, Sprague, CT, United States"
210346,2021,1/24/2022,Torrington,460 TORRINGFORD ST,93470,190700,0.490099996,Residential,Single Family,,,,-73.084123001 41.809140994,41.80914099,-73.084123,"460, Torringford Street, 06790, Torringford Street, Torrington, CT, United States"
210427,2021,1/24/2022,New Haven,100 WHEELER ST,3230745,11147240,0.289799988,Industrial,,,,,-72.89765298 41.297546002,41.297546,-72.89765298,"100, Wheeler Street, 06513, Wheeler Street, New Haven, CT, United States"
21168,2021,1/24/2022,Southbury,1022 B HERITAGE VILLAGE,99440,182000,0.546299994,Residential,Condo,,,,-73.237770998 41.49138602,41.49138602,-73.237771,"New Wheeler Road, 06488, Southbury, United States"
210614,2021,1/24/2022,Sprague,16 PAUTIPAUG HILL RD,124640,270000,0.461600006,Residential,Single Family,,,,-72.09788296 41.618873007,41.61887301,-72.09788296,"16, Pautipaug Hill Road, 06330, Pautipaug Hill Road, Sprague, CT, United States"
2100824,2021,1/24/2022,Stamford,91 STRAWBERRY HILL AVE #837,104680,196000,0.533999979,Residential,Condo,,,,-73.532295988 41.063903007,41.06390301,-73.53229599,"91, Strawberry Hill Avenue, 06902, Strawberry Hill Avenue, Stamford, CT, United States"
21224,2021,1/24/2022,Newtown,2 BROOKWOOD DRIVE,249690,460000,0.542800009,Residential,Single Family,,,,-73.349820028 41.369810999,41.369811,-73.34982003,"2, Brookwood Drive, 06470, Brookwood Drive, Newtown, CT, United States"
210030,2021,1/24/2022,Washington,67 RIVER RD,234230,485000,0.482899994,Residential,Single Family,24 - Plottage,OWNS 69 RIVER RD AS WELL,,-73.322477002 41.631938006,41.63193801,-73.322477,"67, River Road, 06794, River Road, Washington, CT, United States"
210304,2021,1/24/2022,Norwich,91 PROSPECT ST,107900,195000,0.553300023,Residential,Two Family,,,,-72.058309983 41.532027019,41.53202702,-72.05830998,"91, Prospect Street, 06360, Prospect Street, Norwich, CT, United States"
2100239,2021,1/24/2022,New Milford,2 WEDGEWOOD DR,265580,479900,0.553406954,Residential,Single Family,,SALES RATIO,,-73.381267001 41.572469995,41.57247,-73.381267,"2, Wedgewood Drive, 06776, Wedgewood Drive, New Milford, CT, United States"
210588,2021,1/24/2022,Norwalk,15 BAXTER DR,237950,450000,0.528699994,Residential,Single Family,,2-90-63-0,,-73.412507024 41.085918998,41.085919,-73.41250702,"15, Baxter Drive, 06854, Baxter Drive, Norwalk, CT, United States"
210165,2021,1/24/2022,Stonington,8 CASTLE MEADOW DR,129800,239000,0.542999983,Residential,Condo,,,,-71.852221029 41.374297999,41.374298,-71.85222103,"8, Castle Meadow Drive, 06379, Castle Meadow Drive, Pawcatuck, CT, United States"
2100066,2021,1/24/2022,Prospect,139 SUMMIT RD,92140,92500,0.996108115,Residential,Single Family,14 - Foreclosure,SOLD OUT OF FORECLOSURE,,-72.962527989 41.521127988,41.52112799,-72.96252799,"139, Summit Road, 06712, Summit Road, Prospect, CT, United States"
210195,2021,1/24/2022,New London,57 ASHCRAFT RD,132860,190000,0.699199975,Residential,Four Family,25 - Other,TRUSTEES DEED,,-72.111608997 41.358007016,41.35800702,-72.111609,"57, Ashcraft Road, 06320, Ashcraft Road, New London, CT, United States"
210194,2021,1/24/2022,Newington,39 CORTLAND WAY,136180,240000,0.567399979,Residential,Condo,,,,-72.715097979 41.658854015,41.65885402,-72.71509798,"39, Cortland Way, 06111, Cortland Way, Newington, CT, United States"
210195,2021,1/24/2022,Newington,93 RIVER CAMP DR,121700,205000,0.593599975,Residential,Condo,,,,-72.737720987 41.710377993,41.71037799,-72.73772099,"92, River Camp Drive, 06111, River Camp Drive, Newington, CT, United States"
21037,2021,1/24/2022,Salisbury,44 DUGWAY ROAD,1344140,1815000,0.740499973,Residential,Single Family,,,,-73.37601599 41.936668005,41.93666801,-73.37601599,"44, Dugway Road, 06039, Dugway Road, Salisbury, CT, United States"
210794,2021,1/24/2022,Waterbury,68 IRVINGTON AVE,86260,245000,0.351999998,Residential,Single Family,,,,-73.069003976 41.573831007,41.57383101,-73.06900398,"68, Irvington Avenue, 06708, Irvington Avenue, Waterbury, CT, United States"
2100818,2021,1/24/2022,Stamford,60 STRAWBERRY HILL AVE #617,81490,140000,0.582000017,Residential,Condo,,,,-73.53338597 41.062373017,41.06237302,-73.53338597,"48, Strawberry Hill Avenue, 06902, Strawberry Hill Avenue, Stamford, CT, United States"
21056,2021,1/31/2022,Lebanon,130 CARD ST,143970,87500,1.645300031,Residential,Single Family,08 - Part Interest,,,-72.234781986 41.699588011,41.69958801,-72.23478199,"130, Card Street, 06249, Card Street, Lebanon, CT, United States"
210496,2021,1/31/2022,Bristol,83 FOUNDERS DRIVE,58170,150000,0.387800008,Vacant Land,,,,,-72.933066412 41.67852746,41.67852746,-72.93306641,"95, Founders Drive, 06010, Founders Drive, Bristol, CT, United States"
21152,2021,1/31/2022,Bethel,37 PAYNE ROAD,228828,500000,0.457655996,Residential,Single Family,,,,-73.401453976 41.401518984,41.40151898,-73.40145398,"23, Partridge Drive, 06801, Partridge Drive, Bethel, CT, United States"
210570,2021,1/31/2022,Danbury,68 MAIN ST,311100,365000,0.852299988,Commercial,,,I15307,,-73.447992985 41.389617017,41.38961702,-73.44799299,"68, Main Street, 06810, Main Street, Danbury, CT, United States"
210140,2021,1/31/2022,Killingly,1089 DAVIS AVE,97090,210000,0.462300003,Residential,Single Family,,,,-71.882712968 41.821859987,41.82185999,-71.88271297,"1089, Davis Avenue, 06239, Davis Avenue, Killingly, CT, United States"
21042,2021,1/31/2022,Durham,19 SIDE HILL RD,180810,200000,0.903999984,Residential,Single Family,26 - Rehabilitation Deferred,,,-72.723924961 41.444752003,41.444752,-72.72392496,"19, Side Hill Drive, 06422, Side Hill Drive, Durham, CT, United States"
21038,2021,1/31/2022,Deep River,6 WESTBROOK RD,218610,106250,2.057499886,Vacant Land,,06 - Portion of Property,,,-72.489289005 41.361251986,41.36125199,-72.48928901,"6, Westbrook Road, 06417, Westbrook Road, Deep River, CT, United States"
210129,2021,1/31/2022,Berlin,11 CYPRESS CIRCLE,155300,270500,0.574100018,Residential,Condo,,,,-72.761115969 41.584869009,41.58486901,-72.76111597,"11, Cypress Circle, 06037, Cypress Circle, Berlin, CT, United States"
210479,2021,1/31/2022,New Britain,280 CHAPMAN ST,74830,185000,0.404399991,Residential,Single Family,,,,-72.76116802 41.670647018,41.67064702,-72.76116802,"280, Chapman Street, 06051, Chapman Street, New Britain, CT, United States"
21078,2021,1/31/2022,East Haddam,15 CONN RIVER RD,108750,250000,0.435000002,Residential,Single Family,,,,-72.423786983 41.425321153,41.42532115,-72.42378698,"12, River Road, 06423, River Road, East Haddam, CT, United States"
210018,2021,1/31/2022,Lyme,108 ELY FERRY RD,356105,337500,1.055099964,Residential,Single Family,08 - Part Interest,FULL SALE VALUE $675000 (FAMILY SALE),,-72.418141969 41.420250441,41.42025044,-72.41814197,"107, Ferry Road, 06371, Ferry Road, Lyme, CT, United States"
210569,2021,1/31/2022,Danbury,17 WHALEY ST,146900,210000,0.699500024,Residential,Single Family,,G14214,,-73.467833034 41.395579987,41.39557999,-73.46783303,"17, Whaley Street, 06810, Whaley Street, Danbury, CT, United States"
21148,2021,1/31/2022,Monroe,110 MILL BROOK TER,257700,442500,0.582300007,Residential,Single Family,,,,-73.207882975 41.34089599,41.34089599,-73.20788298,"110, Mill Brook Terrace, 06468, Mill Brook Terrace, Monroe, CT, United States"
21000177,2021,1/31/2022,Cheshire,60 WINDING TRAIL LANE,357870,739900,0.483599991,Residential,Single Family,,,,-72.924611025 41.480925992,41.48092599,-72.92461103,"60, Winding Trail Lane, 06410, Winding Trail Lane, Cheshire, CT, United States"
2100242,2021,1/31/2022,Naugatuck,13 RIDGE RD #8,56970,130000,0.438199997,Residential,Condo,,,,-73.063772997 41.508678012,41.50867801,-73.063773,"Ridge Road, 06770, Naugatuck, United States"
21000180,2021,1/31/2022,Cheshire,827 ROARING BROOK RD,285490,570500,0.500400007,Residential,Single Family,,,,-72.933705977 41.481981986,41.48198199,-72.93370598,"827, Roaring Brook Road, 06410, Roaring Brook Road, Cheshire, CT, United States"
210015,2021,1/31/2022,Lyme,54 COVE RD,405100,337500,1.200296283,Residential,Single Family,08 - Part Interest,FULL SALE VALUE $675000 (FAMILY SALE),,-72.355281986 41.378793005,41.37879301,-72.35528199,"54, Cove Road, 06371, Cove Road, Lyme, CT, United States"
210109,2021,1/24/2022,Suffield,41 STRATTON FARMS RD,332080,650000,0.510800004,Residential,Single Family,,,,-72.75261697 42.005626006,42.00562601,-72.75261697,"745, Copperhill Road, 06093, Copperhill Road, Suffield, CT, United States"
210100,2021,1/24/2022,Rocky Hill,19 RIVERVIEW ROAD,145390,340000,0.427599996,Residential,Single Family,,,,-72.634818038 41.668128004,41.668128,-72.63481804,"19, Riverview Road, 06067, Riverview Road, Rocky Hill, CT, United States"
210570,2021,1/24/2022,Southington,220 WELCH RD,201060,360000,0.558499992,Residential,Single Family,,,,-72.90820303 41.634008,41.634008,-72.90820303,"220, Welch Street, 06489, Welch Street, Southington, CT, United States"
210210,2021,1/24/2022,South Windsor,55 SKYLINE DR,175200,365000,0.479999989,Residential,Single Family,,,,-72.560637692 41.854819684,41.85481968,-72.56063769,"55, Skyline Drive, 06074, Skyline Drive, South Windsor, CT, United States"
210798,2021,1/24/2022,Waterbury,511 LAKEWOOD RD,281180,318500,0.882799983,Commercial,,,,,-73.012558982 41.575443014,41.57544301,-73.01255898,"511, Lakewood Road, 06704, Lakewood Road, Waterbury, CT, United States"
210089,2021,1/24/2022,Tolland,170 WILLIE CIRCLE,117800,255000,0.461899996,Residential,Single Family,,,,-72.405962996 41.891472992,41.89147299,-72.405963,"170, Willie Circle, 06084, Willie Circle, Tolland, CT, United States"
210593,2021,1/24/2022,Norwalk,42 BAXTER DR,258273,320000,0.807099998,Residential,Single Family,,2-90-71-0,,-73.412582964 41.085338006,41.08533801,-73.41258296,"42, Baxter Drive, 06854, Baxter Drive, Norwalk, CT, United States"
210190,2021,1/24/2022,New London,16 GARDNER AVE,120540,245000,0.492000014,Residential,Single Family,,,,-72.09154185 41.325651525,41.32565153,-72.09154185,"17, Gardner Avenue, 06320, Gardner Avenue, New London, CT, United States"
2100819,2021,1/24/2022,Stamford,237 STRAWBERRY HILL AVE #41,244900,480000,0.510200024,Residential,Condo,,,,-73.53246899 41.068506013,41.06850601,-73.53246899,"237, Strawberry Hill Avenue, 06902, Strawberry Hill Avenue, Stamford, CT, United States"
210032,2021,1/24/2022,Sterling,89 SNAKE MEADOW HILL RD,236960,400000,0.592400014,Residential,Two Family,,TWO FAMILY BUILT 1974 ON 2.6 ACRES,,-71.841840042 41.732696989,41.73269699,-71.84184004,"93, Snake Meadow Hill Road, 06377, Snake Meadow Hill Road, Plainfield, CT, United States"
210161,2021,1/24/2022,Simsbury,67 BLUE RIDGE DRIVE,253300,430000,0.588999987,Residential,Single Family,,,,-72.842275003 41.821547007,41.82154701,-72.842275,"67, Blue Ridge Drive, 06070, Blue Ridge Drive, Simsbury, CT, United States"
21132,2021,1/24/2022,Plainfield,3 CENTER ST,90570,225000,0.402500004,Residential,Two Family,,,,-71.916359017 41.679255986,41.67925599,-71.91635902,"3, Center Street, 06374, Center Street, Plainfield, CT, United States"
210087,2021,1/24/2022,Tolland,31 CIDER MILL RD,188100,376500,0.499601603,Residential,Single Family,07 - Change in Property,COMPLETE REHAB,,-72.367184038 41.866624002,41.866624,-72.36718404,"31, Cider Mill Road, 06084, Cider Mill Road, Tolland, CT, United States"
210306,2021,1/24/2022,Norwich,119 MCKINLEY AVE,91300,175000,0.521700025,Residential,Single Family,,,,-72.076408021 41.533846018,41.53384602,-72.07640802,"119, McKinley Avenue, 06360, McKinley Avenue, Norwich, CT, United States"
210270,2021,1/24/2022,Wallingford,7 PLYMOUTH CT,156200,301500,0.518000007,Residential,Single Family,,,,-72.833129006 41.471610009,41.47161001,-72.83312901,"7, Plymouth Court, 06492, Plymouth Court, Wallingford, CT, United States"
210800,2021,1/24/2022,Waterbury,59 MOHAWK ST,120850,318877,0.378986269,Residential,Three Family,25 - Other,BULK SALE,,-73.02175502 41.535486985,41.53548699,-73.02175502,"59, Mohawk Street, 06706, Mohawk Street, Waterbury, CT, United States"
210189,2021,1/24/2022,New London,12 SHARAF ST,245000,455000,0.538461566,Apartments,,,,,-72.102806993 41.332245991,41.33224599,-72.10280699,"12, Sharaf Street, 06320, Sharaf Street, New London, CT, United States"
210157,2021,1/31/2022,Ledyard,39-26 ASH DR,63000,139900,0.450300008,Residential,Condo,,,,-72.040578989 41.430924,41.430924,-72.04057899,"39, Ash Drive, 06335, Ash Drive, Ledyard, CT, United States"
210139,2021,1/31/2022,Cromwell,10 WOODLAND DRIVE,60690,120000,0.505699992,Residential,Condo,,,,-72.676675 41.613984011,41.61398401,-72.676675,"10, Woodland Drive, 06416, Woodland Drive, Cromwell, CT, United States"
210116,2021,1/31/2022,East Hampton,14 MALLARD,115080,235000,0.489702135,Residential,Condo,25 - Other,MULTIPLE PARCELS,,-72.503161976 41.584949015,41.58494902,-72.50316198,"Mallard Cove, 06424, East Hampton, United States"
2100129,2021,1/31/2022,Madison,21 SQUIRES RD,204800,350000,0.585099995,Residential,Single Family,,,,-72.64924497 41.348228981,41.34822898,-72.64924497,"21, Squires Road, 06443, Squires Road, Madison, CT, United States"
21077,2021,1/31/2022,East Haddam,93 EH COLCHESTER TPKE,114670,285000,0.4023,Residential,Single Family,,,,-72.402256551 41.512322578,41.51232258,-72.40225655,"327, Eh Colchester Turnpike, 06469, Eh Colchester Turnpike, East Haddam, CT, United States"
210365,2021,1/31/2022,Fairfield,2093 POST ROAD,1305920,2798400,0.466600001,Commercial,,,,,-73.268713967 41.140240981,41.14024098,-73.26871397,"2093, Post Road, 06824, Post Road, Fairfield, CT, United States"
210106,2021,1/31/2022,Mansfield,1A WHITE OAK CONDOS,39300,74000,0.531000018,Residential,Condo,,NOT ON MLS,,-72.250352203 41.771677769,41.77167777,-72.2503522,"796, Mansfield City Road, 06268, Mansfield City Road, Storrs, CT, United States"
210103,2021,1/31/2022,New Fairfield,55 ROCKY HILL RD,157700,399000,0.395200014,Residential,Single Family,07 - Change in Property,ASSESSMENT CHANGE DUE TO CONSTRUCTION,,-73.489491033 41.504858002,41.504858,-73.48949103,"55, Rocky Hill Road, 06812, Rocky Hill Road, New Fairfield, CT, United States"
210562,2021,1/31/2022,Danbury,68 VIRGINIA AV 8,140700,290000,0.485100001,Residential,Condo,,I11141-8,,-73.447567017 41.407786008,41.40778601,-73.44756702,"68, Virginia Avenue, 06810, Virginia Avenue, Danbury, CT, United States"
210573,2021,1/31/2022,Danbury,95 PARK AV 5,160900,300000,0.536300004,Residential,Condo,,H16034-5,,-73.464338031 41.384611009,41.38461101,-73.46433803,"97, Park Avenue, 06810, Park Avenue, Danbury, CT, United States"
210103,2021,1/31/2022,Derby,2 HAROLD AVE,134400,275000,0.488700002,Residential,Single Family,,,,-73.053212973 41.316531012,41.31653101,-73.05321297,"2, Harold Avenue, 06418, Harold Avenue, Derby, CT, United States"
21184,2021,1/31/2022,Guilford,23 EDGEHILL RD,149230,275000,0.542599976,Residential,Single Family,,,,-72.737983005 41.341130012,41.34113001,-72.73798301,"21, Edgehill Road, 06437, Edgehill Road, Guilford, CT, United States"
210720,2021,1/31/2022,Middletown,142 LINCOLN ST,136260,212000,0.642700016,Residential,Three Family,08 - Part Interest,,,-72.657396036 41.56182699,41.56182699,-72.65739604,"142, Lincoln Street, 06457, Lincoln Street, Middletown, CT, United States"
210068,2021,1/31/2022,Brooklyn,50 BAILEY ST,81200,240000,0.33829999,Residential,Single Family,,,,-71.895635012 41.796677984,41.79667798,-71.89563501,"50, Bailey Street, 06234, Bailey Street, Brooklyn, CT, United States"
210222,2021,1/31/2022,Glastonbury,111 HALE RD,208100,350000,0.594500005,Residential,Single Family,,,,-72.569007023 41.698065019,41.69806502,-72.56900702,"111, Hale Road, 06033, Hale Road, Glastonbury, CT, United States"
21123,2021,1/31/2022,Darien,2636 BOSTON POST RD,422520,850000,0.497000009,Residential,Single Family,,,,-73.503922641 41.059774729,41.05977473,-73.50392264,"2630, Boston Post Road, 06820, Boston Post Road, Darien, CT, United States"
21124,2021,1/31/2022,Darien,7 MCLAREN ROAD SOUTH,839930,2250000,0.373299986,Residential,Single Family,,,,-73.474204034 41.083964003,41.083964,-73.47420403,"7, Mclaren Road South, 06820, Mclaren Road South, Darien, CT, United States"
21022,2021,1/31/2022,Barkhamsted,11 HARNESS DR,222760,490000,0.454600006,Residential,Single Family,,"1999 Colonial, 2464 SFLA, 3.62 AC",,-73.02001502 41.933593984,41.93359398,-73.02001502,"11, Harness Drive, 06063, Harness Drive, Barkhamsted, CT, United States"
210495,2021,1/31/2022,Bristol,"1469 FARMINGTON AVE., UNIT 37",94850,195000,0.486400008,Residential,Condo,,,,-72.895926979 41.70202002,41.70202002,-72.89592698,"1469, Farmington Avenue, 06010, Farmington Avenue, Bristol, CT, United States"
21149,2021,1/31/2022,Monroe,562 PEPPER ST,136800,234600,0.583120227,Residential,Single Family,,,,-73.256301961 41.348451018,41.34845102,-73.25630196,"562, Pepper Street, 06468, Pepper Street, Monroe, CT, United States"
210154,2021,1/31/2022,Ledyard,6 BITTERSWEET DR,259210,410000,0.632200003,Residential,Single Family,,,,-72.056216016 41.46500201,41.46500201,-72.05621602,"6, Bittersweet Drive, 06335, Bittersweet Drive, Ledyard, CT, United States"
2100241,2021,1/31/2022,Naugatuck,142 MARGARET CIR,155220,365000,0.425199986,Residential,Single Family,,,,-73.012304005 41.465550983,41.46555098,-73.01230401,"142, Margaret Circle, 06770, Margaret Circle, Naugatuck, CT, United States"
21306,2021,1/31/2022,Bethel,27 GREAT HILL DRIVE,265179,520642,0.509299994,Residential,Condo,07 - Change in Property,,,-73.412932993 41.386987991,41.38698799,-73.41293299,"Lockwood Circle, 06801, Bethel, Connecticut, United States"
2100243,2021,1/31/2022,Naugatuck,103 GREENWOOD ST,106020,297970,0.355807632,Residential,Single Family,07 - Change in Property,,PER MLS INCLUDES UPDATED KITCHEN AND FINISHED BASEMENT AREA,-73.047943019 41.504445989,41.50444599,-73.04794302,"103, Greenwood Street, 06770, Greenwood Street, Naugatuck, CT, United States"
210130,2021,1/31/2022,Berlin,816 FOUR ROD RD UNIT 1C,111300,176000,0.632300019,Industrial,,,,,-72.766149972 41.609318015,41.60931802,-72.76614997,"822, Four Rod Road, 06037, Four Rod Road, Berlin, CT, United States"
210097,2021,1/31/2022,East Windsor,16 NORTH MAIN ST,70160,195000,0.359699994,Residential,Single Family,,,,-72.617554 41.933859983,41.93385998,-72.617554,"16, North Main Street, 06088, North Main Street, East Windsor, CT, United States"
210571,2021,1/31/2022,Danbury,95 PARK AV 7,98000,218000,0.449499995,Residential,Condo,,H16034-7,,-73.464338031 41.384611009,41.38461101,-73.46433803,"97, Park Avenue, 06810, Park Avenue, Danbury, CT, United States"
210016,2021,1/31/2022,Lyme,54 COVE RD,405100,337500,1.200296283,Residential,Single Family,08 - Part Interest,FULL SALE VALUE $675000 (FAMILY SALE),,-72.355281986 41.378793005,41.37879301,-72.35528199,"54, Cove Road, 06371, Cove Road, Lyme, CT, United States"
21202,2021,1/31/2022,Farmington,4 GRANDVIEW DR UNIT 49D,53460,109000,0.490399987,Residential,Condo,,,,-72.850069891 41.740453328,41.74045333,-72.85006989,"Greenbriar Drive, 06032, Farmington, United States"
21055,2021,1/31/2022,Lebanon,130 CARD ST,143970,87500,1.645371437,Residential,Single Family,08 - Part Interest,,,-72.234781986 41.699588011,41.69958801,-72.23478199,"130, Card Street, 06249, Card Street, Lebanon, CT, United States"
21011,2021,1/31/2022,Franklin,31 PAUTIPAUG HILL RD,221230,470000,0.470699996,Residential,Single Family,,,,-72.114863019 41.62807399,41.62807399,-72.11486302,"31, Southgate Crossing, 06254, Southgate Crossing, Franklin, CT, United States"
210418,2021,1/31/2022,Hamden,45 KELLY RD,143360,265000,0.540899992,Residential,Single Family,,,,-72.925505961 41.418999988,41.41899999,-72.92550596,"45, Kelly Road, 06518, Kelly Road, Hamden, CT, United States"
210559,2021,1/31/2022,Danbury,41 WILKES RD,199800,420000,0.475699991,Residential,Single Family,,G03048,,-73.472173015 41.453896994,41.45389699,-73.47217302,"41, Wilkes Road, 06811, Wilkes Road, Danbury, CT, United States"
210138,2021,1/31/2022,Cromwell,161 WOODLAND DRIVE,60130,122000,0.492799997,Residential,Condo,,,,-72.677661969 41.615158986,41.61515899,-72.67766197,"164, Woodland Drive, 06416, Woodland Drive, Cromwell, CT, United States"
21083,2021,1/31/2022,Burlington,713 GEO WASHINGTON TPKE,890750,1325000,0.672200024,Industrial,,,COMMERCIAL BUILDING,,-72.961352008 41.765698009,41.76569801,-72.96135201,"713, George Washington Turnpike, 06013, George Washington Turnpike, Burlington, CT, United States"
21033,2021,1/31/2022,Canterbury,42 WILLOWBROOK LN,178300,365000,0.488493145,Residential,Single Family,,,,-72.009739034 41.718036999,41.718037,-72.00973903,"46, Willowbrook Lane, 06331, Willowbrook Lane, Canterbury, CT, United States"
210151,2021,1/31/2022,Bloomfield,1264 BLUE HILLS AVE,133180,295000,0.451400012,Residential,Single Family,,,,-72.70183697 41.851391989,41.85139199,-72.70183697,"1264, Blue Hills Avenue, 06002, Blue Hills Avenue, Bloomfield, CT, United States"
210364,2021,1/31/2022,Fairfield,100 KNAPPS HIGHWAY UNIT 33,100800,175000,0.575999975,Residential,Condo,,,,-73.233194927 41.185334444,41.18533444,-73.23319493,"42, Fairway Green, 06825, Fairway Green, Fairfield, CT, United States"
210092,2021,1/31/2022,Coventry,1194 CEDAR SWAMP RD,67400,449060,0.150091305,Residential,Single Family,07 - Change in Property,NEW CONSTRUCTION,,-72.409235962 41.825794998,41.825795,-72.40923596,"1200, Cedar Swamp Road, 06238, Cedar Swamp Road, Coventry, CT, United States"
210102,2021,1/31/2022,Derby,1 BIRMINGHAM CONDO,171010,229000,0.746699989,Residential,Single Family,,,,-73.089 41.32065,41.32065,-73.089,"41, Elizabeth Street, 06418, Elizabeth Street, Derby, CT, United States"
210156,2021,1/31/2022,Ledyard,52 STONYBROOK RD,115430,40000,2.885699987,Residential,Single Family,25 - Other,PRIVATE SALE,,-72.060533032 41.462257985,41.46225799,-72.06053303,"52, Stonybrook Road, 06335, Stonybrook Road, Ledyard, CT, United States"
2100240,2021,1/31/2022,Naugatuck,32 WILSON ST,92650,234000,0.395900011,Residential,Single Family,,,,-73.041848034 41.505415985,41.50541599,-73.04184803,"32, Wilson Street, 06770, Wilson Street, Naugatuck, CT, United States"
210719,2021,1/31/2022,Middletown,19 TROLLEY CROSSING LA,50630,105000,0.48210001,Residential,Condo,,,,-72.698104936 41.598354514,41.59835451,-72.69810494,"Trolley Crossing Lane, 06023, Middletown, United States"
210223,2021,1/31/2022,Branford,45 HARRISON AVE,666300,1947000,0.342200011,Commercial,,,APTS/OFFICES,,-72.813676034 41.282271995,41.282272,-72.81367603,"45, Harrison Avenue, 06405, Harrison Avenue, Branford, CT, United States"
21000179,2021,1/31/2022,Cheshire,1022 SUMMIT RD,201130,199500,1.008100033,Residential,Single Family,08 - Part Interest,1/2 INTEREST,,-72.95595599 41.531345989,41.53134599,-72.95595599,"1022, Summit Road, 06410, Summit Road, Cheshire, CT, United States"
210067,2021,1/31/2022,Brooklyn,7 PUTNAM PLACE,184800,275000,0.671999991,Commercial,,,,,-71.951160008 41.78766002,41.78766002,-71.95116001,"7, Putnam Place, 06234, Putnam Place, Brooklyn, CT, United States"
21079,2021,1/31/2022,East Haddam,309 TATER HILL RD,420,55000,0.0076,Vacant Land,,28 - Use Assessment,,,-72.361171028 41.46773602,41.46773602,-72.36117103,"315, Tater Hill Road, 06423, Tater Hill Road, East Haddam, CT, United States"
210565,2021,1/31/2022,Danbury,188-190 TRIANGLE ST,216100,530000,0.407700002,Residential,Two Family,,K13145,,-73.430653007 41.398965019,41.39896502,-73.43065301,"188-190, Triangle Street, 06810, Triangle Street, Danbury, CT, United States"
210572,2021,1/31/2022,Danbury,3 GOLDEN HILL RD,174600,343000,0.509000003,Residential,Single Family,,H12085,,-73.462740022 41.40588801,41.40588801,-73.46274002,"3, Golden Hill Road, 06811, Golden Hill Road, Danbury, CT, United States"
210155,2021,1/31/2022,Ledyard,51 HARVARD TER,196233,360000,0.545000017,Residential,Single Family,,,,-72.084127 41.423743014,41.42374301,-72.084127,"51, Harvard Terrace, 06335, Harvard Terrace, Ledyard, CT, United States"
210096,2021,1/31/2022,East Windsor,238 MAIN ST,70620,175000,0.403499991,Residential,Single Family,07 - Change in Property,RENOVATIONS AFTER 10/1,,-72.615791034 41.91989502,41.91989502,-72.61579103,"238, Main Street, 06088, Main Street, East Windsor, CT, United States"
210017,2021,1/31/2022,Morris,107 LOOKING GLASS HILL RD,235940,559500,0.421600014,Residential,Single Family,,,,-73.258045983 41.707437998,41.707438,-73.25804598,"107, Looking Glass Hill Road, 06763, Looking Glass Hill Road, Morris, CT, United States"
210567,2021,1/31/2022,Danbury,E PEMBROKE RD,41800,90000,0.464399993,Vacant Land,,,H07001,,-73.461687031 41.423915136,41.42391514,-73.46168703,"70, East Pembroke Road, 06811, East Pembroke Road, Danbury, CT, United States"
210138,2021,1/31/2022,Killingly,42 MECHANIC ST & 26 OAK ST,141720,175000,0.809800029,Industrial,,25 - Other,TRANSFER INCLUDES 2 PARCELS,,-71.883689962 41.807440013,41.80744001,-71.88368996,"39, Mechanic Street, 06239, Mechanic Street, Killingly, CT, United States"
21000079,2021,1/31/2022,Granby,11 SCHOOLHOUSE RD,58730,119900,0.489800006,Vacant Land,,,,,-72.779387365 41.974187273,41.97418727,-72.77938737,"3, Schoolhouse Road, 06035, Schoolhouse Road, Granby, CT, United States"
210221,2021,1/31/2022,Glastonbury,30 STONY BROOK DR  7B6,71200,142500,0.499599993,Residential,Condo,,,,-72.571134014 41.719449014,41.71944901,-72.57113401,"Hale Farms, Glastonbury, United States"
21182,2021,1/31/2022,Guilford,149 WEST LANE,1269170,2350000,0.540000021,Vacant Land,,,,,-72.687200994 41.251465986,41.25146599,-72.68720099,"171, West Lane, 06437, West Lane, Guilford, CT, United States"
210107,2021,1/31/2022,Mansfield,365 WARRENVILLE RD,122200,300000,0.407299995,Residential,Single Family,,,,-72.180497009 41.78617701,41.78617701,-72.18049701,"365, Warrenville Road, 06250, Warrenville Road, Mansfield Center, CT, United States"
210494,2021,1/31/2022,Bristol,13 ROBERTSON STREET,64960,107000,0.60710001,Residential,Condo,,,,-72.894884019 41.680153018,41.68015302,-72.89488402,"11, Robertson Street, 06010, Robertson Street, Bristol, CT, United States"
210417,2021,1/31/2022,Hamden,25 HAMDEN HILLS DR U37,158620,250000,0.63440001,Residential,Condo,,,,-72.907711013 41.388031999,41.388032,-72.90771101,"135, Evergreen Avenue, 06518, Evergreen Avenue, Hamden, CT, United States"
21084,2021,1/31/2022,Burlington,72 MONCE RD,159320,355000,0.448700011,Residential,Single Family,,,,-72.907195023 41.740382985,41.74038299,-72.90719502,"72, Monce Road, 06013, Monce Road, Burlington, CT, United States"
210560,2021,1/31/2022,Danbury,1 RIVINGTON WA 106,204100,458333,0.445300013,Residential,Condo,,B15001-1-106,,-73.535854022 41.388328006,41.38832801,-73.53585402,"Warrington Round, 96810, Danbury, Connecticut, United States"
210135,2021,1/31/2022,Avon,15 WYNGATE DRIVE,362670,460000,0.788399994,Residential,Single Family,25 - Other,NOT OPEN MARKET,,-72.867877024 41.79794801,41.79794801,-72.86787702,"15, Wyngate Drive, 06001, Wyngate Drive, Avon, CT, United States"
21203,2021,1/31/2022,Farmington,189 NEW BRITAIN AV,77570,175000,0.443199992,Residential,Condo,,THIS IS A FREE STANDING THE(UNIT ONLY 1 IN COMPLEX),,-72.879222013 41.752636992,41.75263699,-72.87922201,"155, New Britain Avenue, 06085, New Britain Avenue, Farmington, CT, United States"
210564,2021,1/31/2022,Danbury,163 SOUTH ST 7,81700,150000,0.54460001,Residential,Condo,,I16168-7,,-73.446478962 41.386059989,41.38605999,-73.44647896,"163, South Street, 06810, South Street, Danbury, CT, United States"
210612,2021,1/24/2022,Sprague,33 CHURCH ST,173730,408600,0.425099999,Residential,Single Family,,,,-72.050165037 41.600274989,41.60027499,-72.05016504,"33, Church Street, 06330, Church Street, Sprague, CT, United States"
210569,2021,1/24/2022,Southington,80 DOGWOOD DR,157270,295000,0.533100009,Residential,Single Family,,,,-72.860787023 41.606794014,41.60679401,-72.86078702,"80, Dogwood Drive, 06489, Dogwood Drive, Southington, CT, United States"
210345,2021,1/24/2022,Torrington,33 HILL ST,83280,165000,0.504700005,Residential,Two Family,,,,-73.11452299 41.801001999,41.801002,-73.11452299,"33, Hill Street, 06790, Hill Street, Torrington, CT, United States"
210426,2021,1/24/2022,New Haven,253 CONCORD ST,111965,144000,0.777499974,Residential,Single Family,,,,-72.893201016 41.264826991,41.26482699,-72.89320102,"253, Concord Street, 06512, Concord Street, New Haven, CT, United States"
210590,2021,1/24/2022,Norwalk,98 GEORGE AVE,243440,445000,0.546999991,Residential,Single Family,,5-5-237-0,,-73.400110022 41.116347989,41.11634799,-73.40011002,"98, George Avenue, 06851, George Avenue, Norwalk, CT, United States"
210076,2021,1/24/2022,Portland,15 COURNEY LN,333690,550000,0.606700003,Residential,Single Family,,015-0038-4,,-72.585506967 41.566151004,41.566151,-72.58550697,"Courtney Lane, 06414, Portland, United States"
21163,2021,1/24/2022,Ridgefield,120 PEACEABLE ST,544690,1075000,0.506600022,Residential,Single Family,07 - Change in Property,,,-73.512575968 41.27451601,41.27451601,-73.51257597,"120, Peaceable Street, 06877, Peaceable Street, Ridgefield, CT, United States"
210214,2021,1/24/2022,South Windsor,694 RYE ST,155400,325000,0.478100002,Residential,Single Family,,,,-72.571247673 41.868546434,41.86854643,-72.57124767,"694, Rye Street, 06074, Rye Street, South Windsor, CT, United States"
210797,2021,1/24/2022,Waterbury,126 REDCOAT RD,105250,165000,0.637799978,Residential,Single Family,,,,-73.030922978 41.606493984,41.60649398,-73.03092298,"126, Redcoat Road, 06704, Redcoat Road, Waterbury, CT, United States"
2100403,2021,1/24/2022,Stratford,40 NOBLE STREET,157080,400000,0.392699987,Residential,Single Family,07 - Change in Property,UC - 60% COMPLETE.,,-73.143199996 41.194929001,41.194929,-73.1432,"40, Noble Street, 06614, Noble Street, Stratford, CT, United States"
213360,2021,1/24/2022,North Haven,40 LEXINGTON GARDENS,238930,435000,0.549199998,Residential,Condo,,,,-72.843751979 41.356811003,41.356811,-72.84375198,"Lexington Gardens, 06473, North Haven, United States"
210042,2021,1/24/2022,New Hartford,641 LITCHFIELD TPKE,263690,179000,1.473099947,Residential,Single Family,01 - Family,,,-72.986719 41.828407008,41.82840701,-72.986719,"641, Litchfield Turnpike, 06057, Litchfield Turnpike, New Hartford, CT, United States"
210429,2021,1/24/2022,New Haven,WHEELER ST,423325,3858660,0.109700002,Industrial,,,,,-72.89852493 41.295740066,41.29574007,-72.89852493,"Wheeler Street, 06512, New Haven, United States"
210162,2021,1/24/2022,Simsbury,22 GORDON STREET,189380,429900,0.440499991,Residential,Single Family,,,,-72.792969967 41.912464002,41.912464,-72.79296997,"22, Gordon Street, 06070, Gordon Street, Simsbury, CT, United States"
210123,2021,1/24/2022,Seymour,13 BIRCHWOOD RD,193340,355000,0.54460001,Residential,Single Family,,,,-73.04666503 41.403593003,41.403593,-73.04666503,"13, Birchwood Road, 06483, Birchwood Road, Seymour, CT, United States"
2100821,2021,1/24/2022,Stamford,1515 SUMMER STREET #307,290820,441000,0.659399986,Residential,Condo,,,,-73.542154028 41.063164017,41.06316402,-73.54215403,"1515, Summer Street, 06905, Summer Street, Stamford, CT, United States"
21225,2021,1/24/2022,Newtown,9 TODDS ROAD,124550,249900,0.498299986,Residential,Single Family,,,,-73.276653976 41.450852981,41.45085298,-73.27665398,"9, Todds Road, 06482, Todds Road, Newtown, CT, United States"
210150,2021,1/31/2022,Bloomfield,9 BARN HILL ROAD,166530,265000,0.628400028,Residential,Single Family,,,,-72.758814969 41.854079017,41.85407902,-72.75881497,"9, Barn Hill Road, 06002, Barn Hill Road, Bloomfield, CT, United States"
210359,2021,1/31/2022,Torrington,224 LITCHFIELD ST,156880,160000,0.980499983,Residential,Four Family,,PROPERTY HAS 3-FAMILY HOUSE & SINGLE-FAMILY HOUSE,,-73.125469002 41.796732006,41.79673201,-73.125469,"224, Litchfield Street, 06790, Litchfield Street, Torrington, CT, United States"
21170,2021,1/31/2022,Ridgefield,144 SILVER SPRING LA,325200,625000,0.520299971,Residential,Single Family,07 - Change in Property,,,-73.496364026 41.247625021,41.24762502,-73.49636403,"144, Silver Spring Lane, 06877, Silver Spring Lane, Ridgefield, CT, United States"
21137,2021,1/31/2022,Stafford,9 SARTORI RD,40180,45000,0.892799973,Vacant Land,,25 - Other,NOT OPEN MARKET,,-72.25065185 41.995492379,41.99549238,-72.25065185,"5, Sartori Road, 06076, Sartori Road, Stafford, CT, United States"
210226,2021,1/31/2022,South Windsor,567 DEMING ST,254900,551000,0.462599993,Residential,Single Family,,,,-72.536931575 41.815159159,41.81515916,-72.53693158,"567, Deming Street, 06074, Deming Street, South Windsor, CT, United States"
210448,2021,1/31/2022,New Haven,99 & 109 WATER ST,1229382,1500000,0.819500029,Commercial,,,,,-72.917742977 41.30105299,41.30105299,-72.91774298,"109, Water Street, 06511, Water Street, New Haven, CT, United States"
210206,2021,1/31/2022,Newington,33 ELTON DR,129420,275000,0.470600009,Residential,Single Family,,,,-72.728155978 41.703270013,41.70327001,-72.72815598,"33, Elton Drive, 06111, Elton Drive, Newington, CT, United States"
210043,2021,1/31/2022,New Hartford,HELEN HIGHWAY,3780,5000,0.755999982,Vacant Land,,12 - Non Buildable Lot,MBL 09A/101/030 - LOT 177 MAP #285,,-73.031478795 41.885874385,41.88587439,-73.0314788,"59, Helen Highway, 06057, Helen Highway, New Hartford, CT, United States"
2100854,2021,1/31/2022,Stamford,17 ROSE PARK AVENUE,236690,435000,0.544099987,Residential,Two Family,,,,-73.547592039 41.048591994,41.04859199,-73.54759204,"17, Rose Park Avenue, 06902, Rose Park Avenue, Stamford, CT, United States"
210837,2021,1/31/2022,Waterbury,59 OAKRIDGE RD,74720,210000,0.355800003,Residential,Single Family,,,,-73.011700005 41.529589017,41.52958902,-73.01170001,"59, Oakridge Road, 06706, Oakridge Road, Waterbury, CT, United States"
210029,2021,1/31/2022,Pomfret,52 PUTNAM RD,205800,440000,0.467700005,Residential,Single Family,25 - Other,H0065200 OUT OF ESTATE,,-71.957290029 41.896977011,41.89697701,-71.95729003,"52, Putnam Road, 06259, Putnam Road, Pomfret, CT, United States"
21182,2021,1/31/2022,Southbury,HILLSIDE RD,2330,15000,0.155300006,Vacant Land,,12 - Non Buildable Lot,,,-73.253437489 41.44335627,41.44335627,-73.25343749,"Hillside Road, 06488, Southbury, United States"
210082,2021,1/31/2022,Portland,399 MAIN ST,170030,255000,0.666700006,Residential,Single Family,,038-0219,,-72.632600019 41.582453009,41.58245301,-72.63260002,"399, Main Street, 06480, Main Street, Portland, CT, United States"
2100851,2021,1/31/2022,Stamford,0 HARBOR DRIVE DOCK A-2,11470,28000,0.40959999,Residential,Condo,,,,-73.529858872 41.037214499,41.0372145,-73.52985887,"98, Harbor Drive, 06902, Harbor Drive, Stamford, CT, United States"
210843,2021,1/31/2022,Waterbury,538 LAKESIDE BLVD WEST,189290,315000,0.600899994,Residential,Single Family,,,,-73.087667959 41.550037005,41.55003701,-73.08766796,"538, Lakeside Boulevard West, 06708, Lakeside Boulevard West, Waterbury, CT, United States"
210841,2021,1/31/2022,Waterbury,12 CHRISTIAN HILL RD,90700,139000,0.652517974,Residential,Single Family,,,,-73.018067988 41.520356015,41.52035602,-73.01806799,"12, Christian Hill Road, 06706, Christian Hill Road, Waterbury, CT, United States"
210592,2021,1/24/2022,Norwalk,141 SCRIBNER AVE,246360,12537,19.65060043,Residential,Single Family,08 - Part Interest,5-68-111-0,,-73.440120031 41.104625981,41.10462598,-73.44012003,"141, Scribner Avenue, 06854, Scribner Avenue, Norwalk, CT, United States"
21170,2021,1/24/2022,Southbury,64 STRONGTOWN ROAD,117470,113600,1.034000039,Residential,Single Family,07 - Change in Property,,,-73.162238986 41.466634009,41.46663401,-73.16223899,"64, Strongtown Road, 06488, Strongtown Road, Southbury, CT, United States"
210211,2021,1/24/2022,South Windsor,804 SANDSTONE DR,145500,291000,0.5,Residential,Condo,,,,-72.551445678 41.831680602,41.8316806,-72.55144568,"804, Sandstone Drive, 06074, Sandstone Drive, South Windsor, CT, United States"
210192,2021,1/24/2022,New London,79 MOUNTAIN AVE,138600,80000,1.732499957,Commercial,,16 - Charitable Group,,,-72.104195036 41.354928008,41.35492801,-72.10419504,"79, Mountain Avenue, 06320, Mountain Avenue, New London, CT, United States"
210196,2021,1/24/2022,Westport,237 BAYBERRY LANE,1415000,2695000,0.525046408,Residential,Single Family,07 - Change in Property,Physical features and condition did not reflect assessor information at time of sale.,,-73.337033015 41.178848991,41.17884899,-73.33703302,"237, Bayberry Lane, 06880, Bayberry Lane, Westport, CT, United States"
210114,2021,1/24/2022,Windsor Locks,252 OLD COUNTY ROAD,137920,80000,1.723999977,Residential,Single Family,25 - Other,,BELOW MARKET - MAY BE PARTIAL INTEREST,-72.65997104 41.915500011,41.91550001,-72.65997104,"252, Old County Road, 06096, Old County Road, Windsor Locks, CT, United States"
210124,2021,1/24/2022,Wolcott,25 EQUINOX AVE,177500,260000,0.682600021,Residential,Single Family,,appears arms length-avg market time no sales or financing concessions noted,,-72.949092972 41.56480399,41.56480399,-72.94909297,"25, Equinox Avenue, 06716, Equinox Avenue, Wolcott, CT, United States"
210117,2021,1/24/2022,Windsor Locks,30 BARBARA DRIVE,99820,165000,0.604900002,Residential,Single Family,,,,-72.645651983 41.933751983,41.93375198,-72.64565198,"30, Barbara Drive, 06096, Barbara Drive, Windsor Locks, CT, United States"
210309,2021,1/24/2022,West Haven,153 BULL HILL LA #103,49630,60000,0.827099979,Residential,Condo,,,,-72.983255011 41.271900982,41.27190098,-72.98325501,"155, Bull Hill Lane, 06516, Bull Hill Lane, West Haven, CT, United States"
210197,2021,1/24/2022,Westport,15 NEWTOWN TURNPIKE,697700,1295000,0.538699985,Residential,Single Family,,,,-73.387665997 41.158056004,41.158056,-73.387666,"15, Newtown Turnpike, 06880, Newtown Turnpike, Norwalk, CT, United States"
21075,2021,1/22/2022,Thompson,26 WALKER RD,130900,318000,0.411599994,Residential,Two Family,,,,-71.94590598 42.023459008,42.02345901,-71.94590598,"26, Walker Road, 06262, Walker Road, Thompson, CT, United States"
210425,2021,1/22/2022,New Haven,91 HARBOUR CLOSE UNIT 91-C,135450,225000,0.601999998,Residential,Condo,,,,-72.931196016 41.281145006,41.28114501,-72.93119602,"123, South Water Street, 06519, South Water Street, New Haven, CT, United States"
210436,2021,1/22/2022,West Hartford,179 SOMERSET STREET,110530,170000,0.650176466,Residential,Single Family,14 - Foreclosure,,,-72.735822989 41.72631702,41.72631702,-72.73582299,"179, Somerset Street, 06110, Somerset Street, West Hartford, CT, United States"
210707,2021,1/21/2022,Middletown,31 SILVER ST,131220,210000,0.624800026,Residential,Two Family,,,,-72.637782969 41.552514989,41.55251499,-72.63778297,"31, Silver Street, 06457, Silver Street, Middletown, CT, United States"
2100227,2021,1/21/2022,Naugatuck,461 SPRING ST #E3,51070,130000,0.392800003,Residential,Condo,,,,-73.057540969 41.511073015,41.51107302,-73.05754097,"465, Spring Street, 06770, Spring Street, Naugatuck, CT, United States"
21135,2021,1/31/2022,Plainfield,18 VICTORIA DR,175850,178300,0.986259103,Residential,Single Family,01 - Family,,,-71.869552039 41.72011898,41.72011898,-71.86955204,"18, Victoria Drive, 06354, Victoria Drive, Plainfield, CT, United States"
210169,2021,1/31/2022,Simsbury,5 DEERFIELD LANE,209340,378000,0.553799987,Residential,Single Family,,,,-72.829237037 41.850788995,41.850789,-72.82923704,"5, Deerfield Lane, 06070, Deerfield Lane, Simsbury, CT, United States"
210168,2021,1/31/2022,Simsbury,15 BANTRY ROAD,270250,533000,0.507000029,Residential,Condo,,PUD,,-72.824034976 41.857993995,41.857994,-72.82403498,"Bantry Road, 06070, Simsbury, Connecticut, United States"
2100129,2021,1/31/2022,Seymour,224 WOODLAWN DR,210000,370000,0.567499995,Residential,Condo,,,,-73.098309959 41.397733004,41.397733,-73.09830996,"Westwood Drive, 06483, Seymour, United States"
210583,2021,1/31/2022,Southington,8 FOREST ST (TP),64730,130000,0.497900009,Residential,Single Family,,,,-72.882926982 41.637086003,41.637086,-72.88292698,"Forest Street, 06489, Southington, United States"
21181,2021,1/31/2022,Southbury,7 GREENWICH DR,126980,202000,0.628600001,Residential,Single Family,25 - Other,ALSO INCLUDES GREENWICH DR  UID 00233900,,-73.246171006 41.444235007,41.44423501,-73.24617101,"Greenwich Drive, 06488, Southbury, United States"
21018,2021,1/31/2022,Voluntown,61 TEN ROD RD,102620,78179,1.312628746,Residential,Single Family,25 - Other,NOT A VALID SALE,,-71.812923985 41.577156988,41.57715699,-71.81292399,"61, Ten Rod Road, 06384, Ten Rod Road, Voluntown, CT, United States"
2100436,2021,1/31/2022,Stratford,215 LARKIN COURT,84270,145000,0.581099987,Residential,Single Family,,HALF DUPLEX,,-73.138869988 41.173539013,41.17353901,-73.13886999,"215, Larkin Court, 06615, Larkin Court, Stratford, CT, United States"
210205,2021,1/31/2022,Newington,21 SUNRISE CIR,92740,205000,0.452300012,Residential,Condo,,,,-72.753088033 41.674709014,41.67470901,-72.75308803,"15, Sunrise Circle, 06111, Sunrise Circle, Newington, CT, United States"
21139,2021,1/31/2022,Plainfield,STERLING HILL RD,47750,45000,1.061100006,Vacant Land,,06 - Portion of Property,,,-71.848029915 41.693747152,41.69374715,-71.84802992,"505, Sterling Hill Road, 06354, Sterling Hill Road, Plainfield, CT, United States"
210028,2021,1/31/2022,North Canaan,33 OLD TURNPIKE S,106360,349000,0.304756433,Residential,Single Family,07 - Change in Property,,TOTAL RENOVATION PER MLS,-73.257615992 42.010417982,42.01041798,-73.25761599,"33, Browns Lane, 06024, Browns Lane, North Canaan, CT, United States"
210621,2021,1/31/2022,Norwalk,96 SHOREFRONT PARK,507700,680000,0.746599972,Residential,Single Family,,2-86-41-0,,-73.412448016 41.089463998,41.089464,-73.41244802,"96, Shorefront Park, 06854, Shorefront Park, Norwalk, CT, United States"
210833,2021,1/31/2022,Waterbury,438 COLUMBIA BLVD,66100,223000,0.296412557,Residential,Single Family,07 - Change in Property,,TOTAL RENOVATION PER MLS,-73.04635096 41.578324,41.578324,-73.04635096,"438, Columbia Boulevard, 06704, Columbia Boulevard, Waterbury, CT, United States"
2100858,2021,1/31/2022,Stamford,536 RIVERBANK ROAD,1159520,1800000,0.64410001,Residential,Single Family,01 - Family,FAMILY SALE,,-73.593882021 41.109932019,41.10993202,-73.59388202,"536, Riverbank Road, 06903, Riverbank Road, Stamford, CT, United States"
210363,2021,1/31/2022,Torrington,204 GREENRIDGE RD,113570,220000,0.516200006,Residential,Single Family,,,,-73.084949038 41.816014993,41.81601499,-73.08494904,"204, Greenridge Road, 06790, Greenridge Road, Torrington, CT, United States"
210101,2021,1/21/2022,Mansfield,28 OLD WOOD RD,99300,151995,0.653299987,Residential,Single Family,,SUN ROLLING HILLS LLC MH PARK 55+,,-72.274376001 41.821160015,41.82116002,-72.274376,"Rolling Hills, Mansfield, United States"
210797,2021,1/21/2022,Bridgeport,208 GRIFFIN CIRCLE,254624,450000,0.565800011,Residential,Condo,,,,-73.204152022 41.216395014,41.21639501,-73.20415202,"208, Griffin Circle, 06606, Griffin Circle, Bridgeport, CT, United States"
210449,2021,1/21/2022,New Britain,50 PENTLOW AVE,123130,190000,0.648000002,Residential,Single Family,,,,-72.792976002 41.693772018,41.69377202,-72.792976,"50, Pentlow Avenue, 06053, Pentlow Avenue, New Britain, CT, United States"
210016,2021,1/21/2022,Bridgewater,136 CURTIS ROAD,740600,1550000,0.477800012,Residential,Single Family,,,,-73.381177985 41.541675009,41.54167501,-73.38117799,"136, Curtis Road, 06752, Curtis Road, Bridgewater, CT, United States"
210127,2021,1/21/2022,Cromwell,14 BOW LANE,211820,262000,0.808399975,Residential,Single Family,01 - Family,,,-72.670422016 41.618767018,41.61876702,-72.67042202,"14, Bow Lane, 06416, Bow Lane, Cromwell, CT, United States"
210397,2021,1/21/2022,Hamden,118 FOOTE ST,138180,280000,0.493499994,Residential,Single Family,,,,-72.896601974 41.350447001,41.350447,-72.89660197,"118, Foote Street, 06517, Foote Street, Hamden, CT, United States"
210025,2021,1/21/2022,Bethlehem,240 LAKES RD,173400,445000,0.389600009,Residential,Single Family,28 - Use Assessment,1.7 AC WAS FARM OF 3.95 AC,,-73.196335981 41.656867001,41.656867,-73.19633598,"240, Lakes Road, 06751, Lakes Road, Bethlehem, CT, United States"
210096,2021,1/21/2022,New Fairfield,55 RTE 39,190800,397000,0.480599999,Residential,Single Family,,,,-73.475158985 41.470383988,41.47038399,-73.47515899,"55, Route 39, 06812, Route 39, New Fairfield, CT, United States"
210399,2021,1/21/2022,Hamden,1730 STATE ST U410,30310,55000,0.550999999,Residential,Condo,,,,-72.898875984 41.329211994,41.32921199,-72.89887598,"1704, State Street, 06517, State Street, Hamden, CT, United States"
210446,2021,1/21/2022,New Britain,50 CHILDS ST,87990,195000,0.451200008,Residential,Single Family,,,,-72.756452026 41.673296998,41.673297,-72.75645203,"50, Childs Street, 06051, Childs Street, New Britain, CT, United States"
210396,2021,1/21/2022,Hamden,2480 WHITNEY AVE U5,77070,170000,0.453299999,Residential,Condo,,,,-72.902021964 41.387668979,41.38766898,-72.90202196,"49, Hampton Road, 06518, Hampton Road, Hamden, CT, United States"
210100,2021,1/21/2022,East Windsor,9-02 NORTH RD,11080,37318,0.296900004,Residential,Single Family,07 - Change in Property,MOBILE HOME; RENOVATED,,-72.604517039 41.930393019,41.93039302,-72.60451704,"2, North Road, 06088, North Road, East Windsor, CT, United States"
210089,2021,1/21/2022,Derby,3-5 MASON ST,188020,235000,0.800000012,Residential,Two Family,,,,-73.089379963 41.331299004,41.331299,-73.08937996,"5, Mason Street, 06418, Mason Street, Derby, CT, United States"
210801,2021,1/21/2022,Bridgeport,275 MYRTLE AVE,186730,385000,0.485000014,Residential,Three Family,,,,-73.190986986 41.166803986,41.16680399,-73.19098699,"275, Myrtle Avenue, 06604, Myrtle Avenue, Bridgeport, CT, United States"
210796,2021,1/21/2022,Bridgeport,49 BUNNELL  ST #51,105020,201000,0.522400022,Residential,Two Family,10 - A Will,,,-73.16702698 41.17874099,41.17874099,-73.16702698,"51, Bunnell Street, 06607, Bunnell Street, Bridgeport, CT, United States"
2100226,2021,1/21/2022,Naugatuck,34 KOSKO LA,115560,225000,0.513599992,Residential,Single Family,,,,-73.029428987 41.503235014,41.50323501,-73.02942899,"34, Kosko Lane, 06770, Kosko Lane, Naugatuck, CT, United States"
2100251,2021,1/31/2022,New Milford,25 PUMPKIN HILL CONDO,58450,100000,0.584500015,Residential,Condo,,SALES RATIO,,-73.411325008 41.535325005,41.53532501,-73.41132501,"25, Pumpkin Hill Condo, 06776, Pumpkin Hill Condo, New Milford, CT, United States"
210207,2021,1/31/2022,Newington,125 WEBSTER CT,65480,115000,0.569299996,Residential,Condo,,,,-72.722936986 41.652982995,41.652983,-72.72293699,"131, Webster Court, 06111, Webster Court, Newington, CT, United States"
210077,2021,1/31/2022,North Branford,1 COLONIAL DR,149700,428000,0.349766344,Residential,Single Family,07 - Change in Property,,TOTAL RENOVATION PER MLS,-72.787842002 41.324267006,41.32426701,-72.787842,"1, Colonial Drive, 06471, Colonial Drive, North Branford, CT, United States"
210622,2021,1/31/2022,Norwalk,16 HILLSIDE ST UNIT E3,150400,56750,2.65019989,Residential,Condo,03 - Inter Corporation,2-49-12-E3,,-73.426362981 41.098349989,41.09834999,-73.42636298,"16, Hillside Street, 06854, Hillside Street, Norwalk, CT, United States"
21136,2021,1/31/2022,Plainfield,20 CROSS CREEK RD,87930,235000,0.3741,Residential,Condo,,,,-71.927975999 41.684099008,41.68409901,-71.927976,"20, Cross Creek Road, 06374, Cross Creek Road, Plainfield, CT, United States"
210838,2021,1/31/2022,Waterbury,975 MERIDEN RD #61,36360,102100,0.356099993,Residential,Condo,,,,-72.987530033 41.553068991,41.55306899,-72.98753003,"959, Meriden Road, 06705, Meriden Road, Waterbury, CT, United States"
210840,2021,1/31/2022,Waterbury,109 STONYBROOK RD,83270,240000,0.346899986,Residential,Single Family,,,,-72.987408998 41.534157992,41.53415799,-72.987409,"109, Stony Brook Road, 06705, Stony Brook Road, Waterbury, CT, United States"
210358,2021,1/31/2022,Torrington,77 BELMONT DR,87280,164000,0.532100022,Residential,Single Family,10 - A Will,EXECUTOR DEED/PROBATE SALE,,-73.083287996 41.806785009,41.80678501,-73.083288,"77, Belmont Drive, 06790, Belmont Drive, Torrington, CT, United States"
21042,2021,1/31/2022,North Stonington,34 MYSTIC RD,167720,329000,0.5097,Residential,Single Family,,,,-71.896023011 41.443911005,41.44391101,-71.89602301,"34, Mystic Road, 06359, Mystic Road, North Stonington, CT, United States"
210204,2021,1/31/2022,Newington,200 HARTFORD AVE,131610,217000,0.606400013,Residential,Single Family,,,,-72.719345006 41.717192983,41.71719298,-72.71934501,"200, Hartford Avenue, 06111, Hartford Avenue, Newington, CT, United States"
21140,2021,1/31/2022,Plainfield,STERLING HILL RD,29410,40000,0.735199988,Vacant Land,,06 - Portion of Property,,,-71.848029915 41.693747152,41.69374715,-71.84802992,"505, Sterling Hill Road, 06354, Sterling Hill Road, Plainfield, CT, United States"
210834,2021,1/31/2022,Waterbury,19 ALBION ST,73290,173000,0.423599988,Residential,Single Family,,,,-73.014882027 41.546765003,41.546765,-73.01488203,"19, Albion Street, 06705, Albion Street, Waterbury, CT, United States"
210284,2021,1/31/2022,Wallingford,37 LAUREL VIEW,34200,30000,1.139999986,Residential,Single Family,25 - Other,CASH SALE,,-72.81421499 41.480837018,41.48083702,-72.81421499,"Pent Highway, 06492, Wallingford, United States"
21140,2021,1/31/2022,Plainville,59 BURNHAM ST,159880,290000,0.551299989,Residential,Two Family,,,,-72.854160961 41.676454,41.676454,-72.85416096,"59, Burnham Street, 06062, Burnham Street, Plainville, CT, United States"
21090,2021,1/31/2022,Old Saybrook,106 OLD SEA LANE,301400,649000,0.464399993,Residential,Single Family,,,,-72.400912984 41.279465985,41.27946599,-72.40091298,"106, Sea Lane, 06475, Sea Lane, Old Saybrook, CT, United States"
2100857,2021,1/31/2022,Stamford,79 HARBOR DRIVE # 305,263400,445000,0.591899991,Residential,Condo,25 - Other,MULTIPLE PARCEL SALE,,-73.530287013 41.038114992,41.03811499,-73.53028701,"51, Harbor Drive, 06902, Harbor Drive, Stamford, CT, United States"
210448,2021,1/21/2022,New Britain,5 ARCH ST,264390,710000,0.372299999,Commercial,,,,,-72.782156976 41.665419015,41.66541902,-72.78215698,"5, Arch Street, 06051, Arch Street, New Britain, CT, United States"
210798,2021,1/21/2022,Bridgeport,1652 FAIRFIELD AVE #1654,149312,335000,0.44569999,Residential,Three Family,,,,-73.213540005 41.170439008,41.17043901,-73.21354001,"1654, Fairfield Avenue, 06605, Fairfield Avenue, Bridgeport, CT, United States"
210708,2021,1/21/2022,Middletown,132 TROLLEY CROSSING LA,88300,185000,0.477297306,Residential,Condo,07 - Change in Property,,TOTAL RENOVATION PER MLS - SEE PREVIOUS SALE #201065,-72.698651961 41.599429842,41.59942984,-72.69865196,"Trolley Crossing Lane, 06023, Middletown, United States"
210090,2021,1/21/2022,East Windsor,11B RIVERVIEW DR,22540,130000,0.173299998,Residential,Single Family,27 - CRUMBLING FOUNDATION ASSESSMENT REDUCTION,FOUND ISSUES IN COMPLEX,,-72.616825026 41.906642016,41.90664202,-72.61682503,"2, Riverview Drive, 06088, Riverview Drive, East Windsor, CT, United States"
210128,2021,1/21/2022,Cromwell,206 SKYVIEW DRIVE,112980,220000,0.513499975,Residential,Condo,,,,-72.681213968 41.608168018,41.60816802,-72.68121397,"206, Skyview Drive, 06416, Skyview Drive, Cromwell, CT, United States"
210085,2021,1/21/2022,Coventry,62 WINDY HILL RD,78400,551678,0.142111883,Residential,Single Family,07 - Change in Property,NEW CONSTRUCTION,,-72.331106985 41.808678984,41.80867898,-72.33110699,"64, Windy Hill Road, 06238, Windy Hill Road, Coventry, CT, United States"
210447,2021,1/21/2022,New Britain,26 TUNXIS ST,134890,330000,0.408699989,Residential,Single Family,,,,-72.780373978 41.68899098,41.68899098,-72.78037398,"26, Tunxis Street, 06053, Tunxis Street, New Britain, CT, United States"
21138,2021,1/21/2022,Monroe,78 LAZY BROOK RD,283600,580000,0.488900006,Residential,Single Family,,,,-73.193366021 41.339579989,41.33957999,-73.19336602,"78, Lazy Brook Road, 06468, Lazy Brook Road, Monroe, CT, United States"
210147,2021,1/21/2022,New Canaan,883 VALLEY RD,1465590,2399000,0.610899985,Residential,Single Family,,,,-73.48436902 41.184104989,41.18410499,-73.48436902,"883, Valley Road, 06840, Valley Road, New Canaan, CT, United States"
210457,2021,1/21/2022,Bristol,717 JEROME AVE,68470,75000,0.91293335,Residential,Single Family,,,NO MLS,-72.929029964 41.709223009,41.70922301,-72.92902996,"717, Jerome Avenue, 06010, Jerome Avenue, Bristol, CT, United States"
210705,2021,1/21/2022,Middletown,205 CARRIAGE CROSSING,46880,99500,0.471100003,Residential,Condo,,,,-72.70832088 41.58773588,41.58773588,-72.70832088,"Afton Terrace, 06023, Middletown, United States"
210799,2021,1/21/2022,Bridgeport,400 CARROL AVE,33760,450000,0.075000003,Vacant Land,,07 - Change in Property,,,-73.163341662 41.178183814,41.17818381,-73.16334166,"400, Carroll Avenue, 06607, Carroll Avenue, Bridgeport, CT, United States"
210091,2021,1/21/2022,East Windsor,23 MILLER RD,43470,130000,0.334300011,Vacant Land,,28 - Use Assessment,PA 490,,-72.735552806 41.902806495,41.9028065,-72.73555281,"22, Miller Road, 06026, Miller Road, East Granby, CT, United States"
210038,2021,1/21/2022,East Granby,50-58 RAINBOW ROAD,825000,1726803,0.477699995,Commercial,,,COMMERCIAL STRIP PLAZA,,-72.719544998 41.93810898,41.93810898,-72.719545,"50-58, Rainbow Road, 06026, Rainbow Road, East Granby, CT, United States"
210398,2021,1/21/2022,Hamden,694 CIRCULAR AVE,130060,240000,0.541899979,Residential,Single Family,,,,-72.93719201 41.364796987,41.36479699,-72.93719201,"694, Circular Avenue, 06514, Circular Avenue, Hamden, CT, United States"
210097,2021,1/21/2022,New Fairfield,8 CARLEON RD,128600,168000,0.765399992,Residential,Single Family,,,,-73.533722001 41.461150987,41.46115099,-73.533722,"8, Carleon Road, 06812, Carleon Road, New Fairfield, CT, United States"
210225,2021,1/31/2022,South Windsor,787 KING ST,155200,233500,0.664600015,Residential,Single Family,,,,-72.622869635 41.808928303,41.8089283,-72.62286964,"787, North King Street, 06074, North King Street, South Windsor, CT, United States"
21020,2021,1/31/2022,Voluntown,1017 EKONK HILL RD,165870,170000,0.975705862,Residential,Single Family,25 - Other,NOT A VALID SALE,,-71.846950991 41.639775001,41.639775,-71.84695099,"1017, Ekonk Hill Road, 06384, Ekonk Hill Road, Voluntown, CT, United States"
210449,2021,1/31/2022,New Haven,54 ROSEWOOD AV,63560,160000,0.397199988,Residential,Single Family,,,,-72.876733007 41.310044006,41.31004401,-72.87673301,"54, Rosewood Avenue, 06513, Rosewood Avenue, New Haven, CT, United States"
210178,2021,1/31/2022,Stonington,62A PROSPECT ST,58500,330000,0.177200004,Residential,Condo,07 - Change in Property,,,-72.100476145 41.358038681,41.35803868,-72.10047615,"Meeting House Hill, 06320, United States"
210203,2021,1/31/2022,New London,"461 BANK ST UNITS 805,806,807",575540,300000,1.918400049,Residential,Condo,25 - Other,MULTIPLE CONDOS,,-72.100649994 41.350571011,41.35057101,-72.10064999,"465, Bank Street, 06320, Bank Street, New London, CT, United States"
210357,2021,1/31/2022,Torrington,374 WHITE PINE RD,171940,336000,0.511699975,Residential,Single Family,,,,-73.073788031 41.863201001,41.863201,-73.07378803,"374, White Pine Road, 06790, White Pine Road, Torrington, CT, United States"
2100069,2021,1/31/2022,Prospect,35 HIGHLAND DR,149870,293000,0.511500001,Residential,Single Family,,,,-72.996134978 41.510872017,41.51087202,-72.99613498,"35, Highland Drive, 06712, Highland Drive, Prospect, CT, United States"
210582,2021,1/31/2022,Southington,424 PATTONWOOD DR,247210,400000,0.617999971,Residential,Single Family,,,,-72.861435028 41.640628991,41.64062899,-72.86143503,"424, Pattonwood Drive, 06489, Pattonwood Drive, Southington, CT, United States"
210065,2021,1/31/2022,Old Lyme,21 CHADWICK DR,208400,415000,0.502099991,Residential,Single Family,,,,-72.271750035 41.296435986,41.29643599,-72.27175004,"21, Chadwick Drive, 06371, Chadwick Drive, Old Lyme, CT, United States"
2100859,2021,1/31/2022,Stamford,850 EAST MAIN STREET # 313,299090,460000,0.650099993,Residential,Condo,,,,-73.526858982 41.055995981,41.05599598,-73.52685898,"850, East Main Street, 06902, East Main Street, Stamford, CT, United States"
2100434,2021,1/31/2022,Stratford,390 MARINA DRIVE,121660,230000,0.528900027,Residential,Single Family,,,,-73.150656034 41.211001007,41.21100101,-73.15065603,"390, Marina Drive, 06614, Marina Drive, Stratford, CT, United States"
210068,2021,1/31/2022,Somers,4 BEVERLY DRIVE,212600,366075,0.58069998,Residential,Single Family,,,,-72.419316961 41.988240011,41.98824001,-72.41931696,"4, Beverly Drive, 06071, Beverly Drive, Somers, CT, United States"
210360,2021,1/31/2022,Torrington,116 ROOSEVELT AVE,87020,250000,0.34799999,Residential,Two Family,,,,-73.13249597 41.796993018,41.79699302,-73.13249597,"116, Roosevelt Avenue, 06790, Roosevelt Avenue, Torrington, CT, United States"
210283,2021,1/31/2022,Wallingford,21 TAMMY HILL RD,404900,751000,0.539099991,Residential,Single Family,,,,-72.75352297 41.476139003,41.476139,-72.75352297,"21, Tammy Hill Road, 06492, Tammy Hill Road, Wallingford, CT, United States"
210364,2021,1/31/2022,Torrington,99 SPRING ST,79130,165000,0.479499996,Residential,Single Family,,,,-73.137623013 41.807659996,41.80766,-73.13762301,"99, Spring Street, 06790, Spring Street, Torrington, CT, United States"
210623,2021,1/31/2022,Norwalk,PINE POINT RD UNIT 30,46900,135000,0.34740001,Residential,Condo,,6-1A-1-30; BOAT LOCKER,,-73.439154257 41.059647425,41.05964743,-73.43915426,"1, Nearwater Road, 06853, Nearwater Road, Norwalk, CT, United States"
210802,2021,1/21/2022,Bridgeport,440 SUCCESS AVE BLDG 86 APT 15,1381530,25000,55.26119995,Commercial,,08 - Part Interest,COOP (SUCCESS VILLAGE),,-73.156493822 41.198796851,41.19879685,-73.15649382,"454, Success Avenue, 06610, Success Avenue, Bridgeport, CT, United States"
21051,2021,1/21/2022,Lebanon,149 HOXIE RD,144250,342000,0.421700001,Residential,Single Family,,,,-72.192812959 41.600883012,41.60088301,-72.19281296,"149, Hoxie Road, 06249, Hoxie Road, Lebanon, CT, United States"
21170,2021,1/21/2022,Guilford,720 NUT PLAINS RD,298550,550000,0.542800009,Residential,Single Family,,,,-72.683464006 41.318358016,41.31835802,-72.68346401,"748, Nut Plains Road, 06437, Nut Plains Road, Guilford, CT, United States"
2100225,2021,1/21/2022,Naugatuck,79 RAMSEY AVE,142940,296000,0.482899994,Residential,Single Family,,,,-73.033985977 41.510316004,41.510316,-73.03398598,"79, Ramsey Avenue, 06770, Ramsey Avenue, Naugatuck, CT, United States"
210347,2021,1/21/2022,Fairfield,740 MILL HILL TERRACE,636860,1200000,0.530700028,Residential,Single Family,,,,-73.284441015 41.146575017,41.14657502,-73.28444102,"740, Mill Hill Terrace, 06890, Mill Hill Terrace, Fairfield, CT, United States"
210128,2021,1/21/2022,Avon,723 LOVELY STREET,203510,330000,0.616599977,Residential,Single Family,,,,-72.891017028 41.766723996,41.766724,-72.89101703,"723, Lovely Street, 06001, Lovely Street, Avon, CT, United States"
210096,2021,1/21/2022,Ellington,53 SANDY BEACH RD,142310,250000,0.569239974,Residential,Single Family,,,,-72.344805027 41.93592101,41.93592101,-72.34480503,"53, Sandy Beach Road, 06029, Sandy Beach Road, Ellington, CT, United States"
210210,2021,1/21/2022,Branford,101 CEDAR KNOLLS,113200,193000,0.586499989,Residential,Condo,10 - A Will,"ESTATE SALE/NEEDS WORK/SOLD ""AS IS""",,-72.820534023 41.28701699,41.28701699,-72.82053402,"Cedar Knolls Drive, 06405, Branford, United States"
210129,2021,1/21/2022,Cromwell,64 WOODLAND DRIVE,56630,121000,0.467999995,Residential,Condo,,,,-72.677398023 41.61298602,41.61298602,-72.67739802,"62, Woodland Drive, 06416, Woodland Drive, Cromwell, CT, United States"
210456,2021,1/21/2022,Bristol,279 REDSTONE HILL RD UN 60B,41230,65000,0.634299994,Residential,Condo,,,,-72.903914011 41.658531018,41.65853102,-72.90391401,"305, Redstone Hill Road, 06010, Redstone Hill Road, Bristol, CT, United States"
210706,2021,1/21/2022,Middletown,108 TROLLEY CROSSING LA,45820,84900,0.539600015,Residential,Condo,,,,-72.698637658 41.599353569,41.59935357,-72.69863766,"Trolley Crossing Lane, 06023, Middletown, United States"
210148,2021,1/21/2022,New Canaan,2061 PONUS RIDGE,1547140,1325000,1.167600036,Residential,Single Family,,,,-73.550039974 41.177619994,41.17761999,-73.55003997,"2061, Ponus Ridge, 06840, Ponus Ridge, New Canaan, CT, United States"
210401,2021,1/21/2022,Hamden,1730 STATE ST U314,30310,55000,0.550999999,Residential,Condo,,,,-72.898875984 41.329211994,41.32921199,-72.89887598,"1704, State Street, 06517, State Street, Hamden, CT, United States"
21169,2021,1/21/2022,Guilford,1028 MOOSE HILL RD,201190,520000,0.386900008,Residential,Single Family,,,,-72.724623006 41.290892992,41.29089299,-72.72462301,"1028, Moose Hill Road, 06437, Moose Hill Road, Guilford, CT, United States"
210394,2021,1/21/2022,Hamden,360 STERLING PL,182280,300000,0.607599974,Residential,Single Family,,,,-72.940311 41.390126008,41.39012601,-72.940311,"360, Sterling Place, 06514, Sterling Place, Hamden, CT, United States"
210139,2021,1/21/2022,Bloomfield,9 ALLEN ROAD,85890,195000,0.440400004,Residential,Single Family,,,,-72.687463012 41.811339986,41.81133999,-72.68746301,"9, Allen Road, 06002, Allen Road, Bloomfield, CT, United States"
210800,2021,1/21/2022,Bridgeport,65 ST NICHOLAS DR,229760,445000,0.516300023,Residential,Single Family,,,,-73.238498966 41.223253003,41.223253,-73.23849897,"65, Street Nicholas Drive, 06604, Street Nicholas Drive, Bridgeport, CT, United States"
210208,2021,1/31/2022,Newington,736 CYPRESS RD,95130,185000,0.514199972,Residential,Condo,,,,-72.708421039 41.676973007,41.67697301,-72.70842104,"726, Cypress Road, 06111, Cypress Road, Newington, CT, United States"
210318,2021,1/31/2022,Norwich,303 MOHEGAN PARK RD #94,10400,10500,0.990400016,Residential,Single Family,04 - Correcting Deed,,,-72.065428043 41.553099103,41.5530991,-72.06542804,"303, Mohegan Park Road, 06360, Mohegan Park Road, Norwich, CT, United States"
21180,2021,1/31/2022,Southbury,601 KETTLETOWN RD,208330,425000,0.490099996,Residential,Single Family,,,,-73.198430032 41.461768021,41.46176802,-73.19843003,"601, Kettletown Road, 06488, Kettletown Road, Southbury, CT, United States"
210036,2021,1/31/2022,Sharon,68A HERB RD,580,300000,0.0019,Vacant Land,,28 - Use Assessment,PA490 FOREST,,-73.429145629 41.793612521,41.79361252,-73.42914563,"80, Herb Road, 06069, Herb Road, Sharon, CT, United States"
21141,2021,1/31/2022,Plainville,24 BRADLEY ST,159250,265000,0.600899994,Residential,Single Family,,,,-72.880266985 41.679008008,41.67900801,-72.88026699,"24, Bradley Street, 06062, Bradley Street, Plainville, CT, United States"
21041,2021,1/31/2022,North Stonington,6 POND DR,112770,262000,0.430400014,Residential,Single Family,,,,-71.879048986 41.421436985,41.42143699,-71.87904899,"6, Pond Drive, 06359, Pond Drive, North Stonington, CT, United States"
2100853,2021,1/31/2022,Stamford,154 OAKLAWN AVENUE,386170,550000,0.702099979,Residential,Single Family,,,,-73.539347012 41.079378012,41.07937801,-73.53934701,"154, Oaklawn Avenue, 06905, Oaklawn Avenue, Stamford, CT, United States"
210315,2021,1/31/2022,Norwich,11 KILMER AVE,86800,235000,0.369300008,Residential,Single Family,,,,-72.088677032 41.519911984,41.51991198,-72.08867703,"11, Kilmer Avenue, 06360, Kilmer Avenue, Norwich, CT, United States"
2100070,2021,1/31/2022,Prospect,102 CLARK HILL RD,104030,208000,0.500100017,Residential,Single Family,,,,-73.013962029 41.507371986,41.50737199,-73.01396203,"102, Clark Hill Road, 06712, Clark Hill Road, Prospect, CT, United States"
210179,2021,1/31/2022,Stonington,103 FAIR ACRES CIR,30400,65000,0.467599988,Residential,Single Family,,,,-71.960264012 41.378968983,41.37896898,-71.96026401,"Fair Acres Circle, 06372, Stonington, Connecticut, United States"
2100250,2021,1/31/2022,New Milford,61 DANBURY RD,715470,1533150,0.466600001,Commercial,,25 - Other,SALES RATIO,,-73.413987017 41.565470016,41.56547002,-73.41398702,"61, Danbury Road, 06776, Danbury Road, New Milford, CT, United States"
21137,2021,1/31/2022,Plainfield,16-20 LAKE ST,82610,260000,0.317699999,Residential,Three Family,,,,-71.873343006 41.719903984,41.71990398,-71.87334301,"16, Lake Street, 06354, Lake Street, Plainfield, CT, United States"
210835,2021,1/31/2022,Waterbury,52 SHARON RD #3,25550,96000,0.266145825,Residential,Condo,07 - Change in Property,,REMODELED UNIT PER MLS,-72.999075015 41.56946898,41.56946898,-72.99907502,"52, Sharon Road, 06705, Sharon Road, Waterbury, CT, United States"
2100856,2021,1/31/2022,Stamford,57 HARBOR DRIVE GAR # 302B,19110,445000,0.0429,Residential,Condo,25 - Other,MULTIPLE PARCEL SALE,,-73.529379682 41.039351823,41.03935182,-73.52937968,"43, Harbor Drive, 06902, Harbor Drive, Stamford, CT, United States"
210447,2021,1/31/2022,New Haven,675 TOWNSEND AV UNIT 102,128625,240800,0.534099996,Residential,Condo,,,,-72.890519981 41.276559979,41.27655998,-72.89051998,"177, Raynham Hill Drive, 06512, Raynham Hill Drive, New Haven, CT, United States"
213370,2021,1/31/2022,North Haven,20 DRAZEN DR,211490,370000,0.571594596,Residential,Single Family,07 - Change in Property,PROPERTY IMPROVED,,-72.834157968 41.382224011,41.38222401,-72.83415797,"20, Drazen Drive, 06473, Drazen Drive, North Haven, CT, United States"
21192,2021,1/21/2022,Farmington,14 COBBLE COURT,322810,513000,0.629199982,Residential,Single Family,,,,-72.888951978 41.721068021,41.72106802,-72.88895198,"12, Cobble Court, 06085, Cobble Court, Farmington, CT, United States"
21050,2021,1/21/2022,Lebanon,181 LEONARD BRIDGE RD,179100,399900,0.44780001,Residential,Single Family,,,,-72.297589012 41.643445018,41.64344502,-72.29758901,"181, Leonard Bridge Road, 06249, Leonard Bridge Road, Lebanon, CT, United States"
210450,2021,1/21/2022,New Britain,150 GREENWOOD ST,127400,310000,0.410899997,Residential,Three Family,,,,-72.782024961 41.653758991,41.65375899,-72.78202496,"150, Greenwood Street, 06051, Greenwood Street, New Britain, CT, United States"
210395,2021,1/21/2022,Hamden,360 GOODRICH ST,124740,175000,0.712800026,Residential,Two Family,,,,-72.933070042 41.335429019,41.33542902,-72.93307004,"360, Goodrich Street, 06517, Goodrich Street, Hamden, CT, United States"
21038,2021,1/21/2022,Durham,38 AUSTIN RD,134820,200000,0.674099982,Residential,Single Family,,,,-72.675324004 41.492077988,41.49207799,-72.675324,"38, Austin Road, 06422, Austin Road, Durham, CT, United States"
210400,2021,1/21/2022,Hamden,1730 STATE ST U102,17920,55000,0.325800002,Residential,Condo,,,,-72.898875984 41.329211994,41.32921199,-72.89887598,"1704, State Street, 06517, State Street, Hamden, CT, United States"
210209,2021,1/21/2022,Branford,25 STANNARD AVE,560300,910000,0.615700006,Residential,Single Family,,,,-72.821621994 41.265451988,41.26545199,-72.82162199,"25, Stannard Avenue, 06405, Stannard Avenue, Branford, CT, United States"
210071,2021,1/21/2022,Essex,28 WOODLAND DR,168300,268000,0.62798506,Residential,Single Family,,,,-72.416021029 41.343067992,41.34306799,-72.41602103,"28, Woodland Drive, 06409, Woodland Drive, Essex, CT, United States"
210140,2021,1/21/2022,Bloomfield,10 PURITAN DRIVE,134960,152000,0.887799978,Residential,Single Family,26 - Rehabilitation Deferred,,,-72.747166973 41.828380018,41.82838002,-72.74716697,"10, Puritan Drive, 06002, Puritan Drive, Bloomfield, CT, United States"
21168,2021,1/21/2022,Guilford,152 DUNK ROCK RD,234170,385000,0.608200014,Residential,Single Family,,,,-72.699418037 41.287829993,41.28782999,-72.69941804,"152, Dunk Rock Road, 06437, Dunk Rock Road, Guilford, CT, United States"
210208,2021,1/21/2022,Branford,48 HILLTOP DR,181600,385000,0.471599996,Residential,Single Family,07 - Change in Property,TOTAL REMODEL/FLIP HOUSE  C/O ISSUED 11/24/21,,-72.816856966 41.318080994,41.31808099,-72.81685697,"48, Hilltop Drive, 06471, Hilltop Drive, Branford, CT, United States"
210445,2021,1/21/2022,New Britain,123-11A BRITTANY FARMS,94780,180000,0.526499987,Residential,Condo,,,,-72.769515258 41.711123502,41.7111235,-72.76951526,"Village Square Road, 06050, New Britain, Connecticut, United States"
210098,2021,1/21/2022,Rocky Hill,17 CLEMENS COURT,111160,215000,0.51700002,Residential,Condo,,,,-72.686793968 41.638702998,41.638703,-72.68679397,"Cold Spring Village, Rocky Hill, Connecticut, United States"
2100810,2021,1/21/2022,Stamford,297 GUINEA ROAD,637740,1080000,0.590499997,Residential,Single Family,,,,-73.596661041 41.097901012,41.09790101,-73.59666104,"297, Guinea Road, 06903, Guinea Road, Stamford, CT, United States"
2100400,2021,1/21/2022,Stratford,295 JOHNSON AVENUE,136150,318000,0.42809999,Residential,Single Family,,,,-73.139986039 41.201437004,41.201437,-73.13998604,"295, Johnson Avenue, 06614, Johnson Avenue, Stratford, CT, United States"
210192,2021,1/21/2022,Newington,45 FOX RUN CT,122060,232000,0.52609998,Residential,Condo,,,,-72.723906018 41.673276001,41.673276,-72.72390602,"49, Fox Run Court, 06111, Fox Run Court, Newington, CT, United States"
210791,2021,1/21/2022,Waterbury,2344 NORTH MAIN ST,56210,160000,0.351300001,Residential,Single Family,,,,-73.02832903 41.582392995,41.582393,-73.02832903,"2344, North Main Street, 06704, North Main Street, Waterbury, CT, United States"
21091,2021,1/31/2022,Oxford,544 CADDIE COURT,265200,520000,0.50999999,Residential,Condo,,,,-73.109795406 41.469165842,41.46916584,-73.10979541,"Caddie Court, Oxford, United States"
21172,2021,1/31/2022,Ridgefield,85 SCODON DR,328350,610000,0.538200021,Residential,Single Family,07 - Change in Property,,,-73.515782968 41.354881991,41.35488199,-73.51578297,"85, Scodon Drive, 06877, Scodon Drive, Ridgefield, CT, United States"
210842,2021,1/31/2022,Waterbury,725 WATERVILLE ST,120370,275000,0.437700003,Residential,Two Family,,,,-73.048896963 41.578393989,41.57839399,-73.04889696,"711, Waterville Street, 06710, Waterville Street, Waterbury, CT, United States"
2100852,2021,1/31/2022,Stamford,90 WESTOVER AVENUE,495170,890000,0.556299984,Residential,Single Family,,,,-73.575656998 41.070137006,41.07013701,-73.575657,"82, Westover Avenue, 06902, Westover Avenue, Stamford, CT, United States"
21134,2021,1/31/2022,Plainfield,25 ROODE RD,266650,950000,0.280600011,Industrial,,,,,-71.949970029 41.635752987,41.63575299,-71.94997003,"25, Roode Road, 06374, Roode Road, Plainfield, CT, United States"
21078,2021,1/31/2022,Thompson,27 OLD TURNPIKE,108200,270000,0.400700003,Residential,Single Family,,,,-71.86424 41.95972,41.95972,-71.86424,"Thompson Hill Road, 06255, Thompson, Connecticut, United States"
21171,2021,1/31/2022,Ridgefield,16 PELHAM LA,479040,1048000,0.456999987,Residential,Single Family,07 - Change in Property,,,-73.460417983 41.257302012,41.25730201,-73.46041798,"16, Pelham Lane, 06877, Pelham Lane, Ridgefield, CT, United States"
210836,2021,1/31/2022,Waterbury,24 TAFT POINT #47,61590,161000,0.382499993,Residential,Condo,,,,-73.06652201 41.525452003,41.525452,-73.06652201,"794, Oronoke Road, 06708, Oronoke Road, Waterbury, CT, United States"
210170,2021,1/31/2022,Simsbury,21 WHITE OAK LANE,106760,529000,0.201800004,Residential,Single Family,07 - Change in Property,,,-72.810806264 41.881184128,41.88118413,-72.81080626,"23, White Oak Lane, 06070, White Oak Lane, Simsbury, CT, United States"
210096,2021,1/31/2022,Tolland,54 WOODSIDE DR,195200,340000,0.574100018,Residential,Single Family,,,,-72.411554983 41.855517981,41.85551798,-72.41155498,"54, Woodside Drive, 06084, Woodside Drive, Tolland, CT, United States"
21142,2021,1/31/2022,Plainville,70 PERSHING DR,115500,172000,0.671500027,Residential,Single Family,,,,-72.861982031 41.661631987,41.66163199,-72.86198203,"70, Pershing Drive, 06062, Pershing Drive, Plainville, CT, United States"
210316,2021,1/31/2022,Norwich,194 SCOTLAND RD,209400,379900,0.551100016,Residential,Single Family,,,,-72.087518216 41.562639256,41.56263926,-72.08751822,"188, Scotland Road, 06360, Scotland Road, Norwich, CT, United States"
210624,2021,1/31/2022,Norwalk,10 MAPLEWOOD TER,223400,423999,0.526799977,Residential,Single Family,,5-21-84-0,,-73.422373027 41.131861006,41.13186101,-73.42237303,"10, Maplewood Terrace, 06851, Maplewood Terrace, Norwalk, CT, United States"
21019,2021,1/31/2022,Voluntown,111 WYLIE SCHOOL RD,141120,305000,0.462599993,Residential,Single Family,,,,-71.822584966 41.58770599,41.58770599,-71.82258497,"111, Wylie School Road, 06384, Wylie School Road, Voluntown, CT, United States"
21179,2021,1/31/2022,Southbury,531 B HERITAGE VILLAGE,52590,167000,0.314900011,Residential,Condo,,,,-73.225712822 41.500137503,41.5001375,-73.22571282,"Meadow Lane, 06488, Southbury, Connecticut, United States"
2100435,2021,1/31/2022,Stratford,23 CALIFORNIA STREET,153740,300000,0.512399971,Residential,Single Family,,,,-73.137165025 41.192185018,41.19218502,-73.13716503,"23, California Street, 06615, California Street, Stratford, CT, United States"
210362,2021,1/31/2022,Torrington,33 FRANKLIN ST,106170,125000,0.849300027,Commercial,,,,,-73.119927977 41.800646983,41.80064698,-73.11992798,"33, Franklin Street, 06790, Franklin Street, Torrington, CT, United States"
210106,2021,1/21/2022,Suffield,50 H 40 51,6650,5000,1.330000043,Vacant Land,,12 - Non Buildable Lot,UNBUILDABLE LOT SOLD TO ABUTTER,,-72.65914 41.98373,41.98373,-72.65914,"226, Mountain Road, 06078, Mountain Road, Suffield, CT, United States"
210587,2021,1/21/2022,Norwalk,48 LOCKWOOD LN,277790,510000,0.54460001,Residential,Single Family,,5-5-118-0,,-73.402362994 41.115448988,41.11544899,-73.40236299,"48, Lockwood Lane, 06851, Lockwood Lane, Norwalk, CT, United States"
210784,2021,1/21/2022,Waterbury,119 TAFT POINTE #20-4,91060,180000,0.505800009,Residential,Condo,,,,-73.070284982 41.523369016,41.52336902,-73.07028498,"119, Taft Pointe, 06708, Taft Pointe, Waterbury, CT, United States"
